{
  "type": "FeatureCollection",
  "name": "愛知県名古屋市 指定避難所",
  "features": [
    {
      "type": "Feature",
      "geometry": {
        "type": "Point",
        "coordinates": [
          136.905289,
          35.241884
        ]
      },
      "properties": {
        "NO": "1",
        "共通ID": "E2310000001111",
        "施設・場所名": "中央卸売市場北部市場",
        "住所": "愛知県豊山町大字豊場字八反107",
        "指定緊急避難場所との住所同一": "1",
        "その他市町村長が必要と認める事項": null,
        "受入対象者": null,
        "備考": ""
      }
    },
    {
      "type": "Feature",
      "geometry": {
        "type": "Point",
        "coordinates": [
          136.872174,
          35.100345
        ]
      },
      "properties": {
        "NO": "2",
        "共通ID": "E2310000003111",
        "施設・場所名": "上下水道局中川西配水場",
        "住所": "愛知県名古屋市港区いろは町5-16",
        "指定緊急避難場所との住所同一": "1",
        "その他市町村長が必要と認める事項": null,
        "受入対象者": null,
        "備考": ""
      }
    },
    {
      "type": "Feature",
      "geometry": {
        "type": "Point",
        "coordinates": [
          136.841825,
          35.106493
        ]
      },
      "properties": {
        "NO": "3",
        "共通ID": "E2310000005111",
        "施設・場所名": "県立惟信高等学校",
        "住所": "愛知県名古屋市港区惟信町2-262",
        "指定緊急避難場所との住所同一": "1",
        "その他市町村長が必要と認める事項": null,
        "受入対象者": null,
        "備考": ""
      }
    },
    {
      "type": "Feature",
      "geometry": {
        "type": "Point",
        "coordinates": [
          136.862098,
          35.089512
        ]
      },
      "properties": {
        "NO": "4",
        "共通ID": "E2310000009111",
        "施設・場所名": "港南中学校",
        "住所": "愛知県名古屋市港区稲永1-4-39",
        "指定緊急避難場所との住所同一": "1",
        "その他市町村長が必要と認める事項": null,
        "受入対象者": null,
        "備考": ""
      }
    },
    {
      "type": "Feature",
      "geometry": {
        "type": "Point",
        "coordinates": [
          136.857455,
          35.085992
        ]
      },
      "properties": {
        "NO": "5",
        "共通ID": "E2310000021111",
        "施設・場所名": "稲永小学校",
        "住所": "愛知県名古屋市港区稲永4-6-35",
        "指定緊急避難場所との住所同一": "1",
        "その他市町村長が必要と認める事項": null,
        "受入対象者": null,
        "備考": ""
      }
    },
    {
      "type": "Feature",
      "geometry": {
        "type": "Point",
        "coordinates": [
          136.858158,
          35.086697
        ]
      },
      "properties": {
        "NO": "6",
        "共通ID": "E2310000023111",
        "施設・場所名": "稲永コミュニティセンター",
        "住所": "愛知県名古屋市港区稲永4-7-56",
        "指定緊急避難場所との住所同一": "1",
        "その他市町村長が必要と認める事項": null,
        "受入対象者": null,
        "備考": ""
      }
    },
    {
      "type": "Feature",
      "geometry": {
        "type": "Point",
        "coordinates": [
          136.870119,
          35.117173
        ]
      },
      "properties": {
        "NO": "7",
        "共通ID": "E2310000035111",
        "施設・場所名": "愛知県武道館",
        "住所": "愛知県名古屋市港区丸池町1-1-4",
        "指定緊急避難場所との住所同一": "1",
        "その他市町村長が必要と認める事項": "",
        "受入対象者": "",
        "備考": ""
      }
    },
    {
      "type": "Feature",
      "geometry": {
        "type": "Point",
        "coordinates": [
          136.883395,
          35.116682
        ]
      },
      "properties": {
        "NO": "8",
        "共通ID": "E2310000043111",
        "施設・場所名": "東海小学校",
        "住所": "愛知県名古屋市港区九番町1-1-3",
        "指定緊急避難場所との住所同一": "1",
        "その他市町村長が必要と認める事項": null,
        "受入対象者": null,
        "備考": ""
      }
    },
    {
      "type": "Feature",
      "geometry": {
        "type": "Point",
        "coordinates": [
          136.88233,
          35.106759
        ]
      },
      "properties": {
        "NO": "9",
        "共通ID": "E2310000048111",
        "施設・場所名": "邦和みなと　スポーツ＆カルチャー　",
        "住所": "愛知県名古屋市港区港栄1-8-23",
        "指定緊急避難場所との住所同一": "",
        "その他市町村長が必要と認める事項": "",
        "受入対象者": "",
        "備考": ""
      }
    },
    {
      "type": "Feature",
      "geometry": {
        "type": "Point",
        "coordinates": [
          136.881371,
          35.099387
        ]
      },
      "properties": {
        "NO": "10",
        "共通ID": "E2310000050111",
        "施設・場所名": "慶和幼稚園",
        "住所": "愛知県名古屋市港区港栄4-4-18",
        "指定緊急避難場所との住所同一": "1",
        "その他市町村長が必要と認める事項": null,
        "受入対象者": null,
        "備考": ""
      }
    },
    {
      "type": "Feature",
      "geometry": {
        "type": "Point",
        "coordinates": [
          136.886599,
          35.106516
        ]
      },
      "properties": {
        "NO": "11",
        "共通ID": "E2310000054111",
        "施設・場所名": "東港中学校",
        "住所": "愛知県名古屋市港区港楽1-7-16",
        "指定緊急避難場所との住所同一": "1",
        "その他市町村長が必要と認める事項": null,
        "受入対象者": null,
        "備考": ""
      }
    },
    {
      "type": "Feature",
      "geometry": {
        "type": "Point",
        "coordinates": [
          136.885615,
          35.10364
        ]
      },
      "properties": {
        "NO": "12",
        "共通ID": "E2310000056111",
        "施設・場所名": "港楽小学校",
        "住所": "愛知県名古屋市港区港楽2-3-36",
        "指定緊急避難場所との住所同一": "1",
        "その他市町村長が必要と認める事項": null,
        "受入対象者": null,
        "備考": ""
      }
    },
    {
      "type": "Feature",
      "geometry": {
        "type": "Point",
        "coordinates": [
          136.882778,
          35.091906
        ]
      },
      "properties": {
        "NO": "13",
        "共通ID": "E2310000057111",
        "施設・場所名": "名古屋港管理組合本庁舎・名古屋港湾会館",
        "住所": "愛知県名古屋市港区港町1-11",
        "指定緊急避難場所との住所同一": "1",
        "その他市町村長が必要と認める事項": null,
        "受入対象者": null,
        "備考": ""
      }
    },
    {
      "type": "Feature",
      "geometry": {
        "type": "Point",
        "coordinates": [
          136.859232,
          35.109698
        ]
      },
      "properties": {
        "NO": "14",
        "共通ID": "E2310000060111",
        "施設・場所名": "港北中学校",
        "住所": "愛知県名古屋市港区港北町2-1",
        "指定緊急避難場所との住所同一": "1",
        "その他市町村長が必要と認める事項": null,
        "受入対象者": null,
        "備考": ""
      }
    },
    {
      "type": "Feature",
      "geometry": {
        "type": "Point",
        "coordinates": [
          136.858388,
          35.107848
        ]
      },
      "properties": {
        "NO": "15",
        "共通ID": "E2310000061111",
        "施設・場所名": "小碓コミュニティセンター",
        "住所": "愛知県名古屋市港区港北町2-34",
        "指定緊急避難場所との住所同一": "1",
        "その他市町村長が必要と認める事項": null,
        "受入対象者": null,
        "備考": ""
      }
    },
    {
      "type": "Feature",
      "geometry": {
        "type": "Point",
        "coordinates": [
          136.892086,
          35.110717
        ]
      },
      "properties": {
        "NO": "16",
        "共通ID": "E2310000064111",
        "施設・場所名": "港明中学校",
        "住所": "愛知県名古屋市港区港明1-1-38",
        "指定緊急避難場所との住所同一": "1",
        "その他市町村長が必要と認める事項": null,
        "受入対象者": null,
        "備考": ""
      }
    },
    {
      "type": "Feature",
      "geometry": {
        "type": "Point",
        "coordinates": [
          136.89071,
          35.111161
        ]
      },
      "properties": {
        "NO": "17",
        "共通ID": "E2310000065111",
        "施設・場所名": "中川コミュニティセンター",
        "住所": "愛知県名古屋市港区港明1-3-13",
        "指定緊急避難場所との住所同一": "1",
        "その他市町村長が必要と認める事項": null,
        "受入対象者": null,
        "備考": ""
      }
    },
    {
      "type": "Feature",
      "geometry": {
        "type": "Point",
        "coordinates": [
          136.887841,
          35.103418
        ]
      },
      "properties": {
        "NO": "18",
        "共通ID": "E2310000069111",
        "施設・場所名": "港楽コミュニティセンター",
        "住所": "愛知県名古屋市港区港陽1-1-65",
        "指定緊急避難場所との住所同一": "1",
        "その他市町村長が必要と認める事項": null,
        "受入対象者": null,
        "備考": ""
      }
    },
    {
      "type": "Feature",
      "geometry": {
        "type": "Point",
        "coordinates": [
          136.887416,
          35.102232
        ]
      },
      "properties": {
        "NO": "19",
        "共通ID": "E2310000068111",
        "施設・場所名": "港生涯学習センター",
        "住所": "愛知県名古屋市港区港陽1-10-18",
        "指定緊急避難場所との住所同一": "1",
        "その他市町村長が必要と認める事項": null,
        "受入対象者": null,
        "備考": ""
      }
    },
    {
      "type": "Feature",
      "geometry": {
        "type": "Point",
        "coordinates": [
          136.848828,
          35.102195
        ]
      },
      "properties": {
        "NO": "20",
        "共通ID": "E2310000072111",
        "施設・場所名": "高木小学校",
        "住所": "愛知県名古屋市港区高木町3-20",
        "指定緊急避難場所との住所同一": "1",
        "その他市町村長が必要と認める事項": null,
        "受入対象者": null,
        "備考": ""
      }
    },
    {
      "type": "Feature",
      "geometry": {
        "type": "Point",
        "coordinates": [
          136.833077,
          35.100926
        ]
      },
      "properties": {
        "NO": "21",
        "共通ID": "E2310000076111",
        "施設・場所名": "七島緊急避難所",
        "住所": "愛知県名古屋市港区七島2-162",
        "指定緊急避難場所との住所同一": "1",
        "その他市町村長が必要と認める事項": null,
        "受入対象者": null,
        "備考": ""
      }
    },
    {
      "type": "Feature",
      "geometry": {
        "type": "Point",
        "coordinates": [
          136.82098,
          35.115336
        ]
      },
      "properties": {
        "NO": "22",
        "共通ID": "E2310000077111",
        "施設・場所名": "福田小学校",
        "住所": "愛知県名古屋市港区七反野1-1207",
        "指定緊急避難場所との住所同一": "1",
        "その他市町村長が必要と認める事項": null,
        "受入対象者": null,
        "備考": ""
      }
    },
    {
      "type": "Feature",
      "geometry": {
        "type": "Point",
        "coordinates": [
          136.856271,
          35.092617
        ]
      },
      "properties": {
        "NO": "23",
        "共通ID": "E2310000093111",
        "施設・場所名": "港西小学校",
        "住所": "愛知県名古屋市港区十一屋3-55",
        "指定緊急避難場所との住所同一": "1",
        "その他市町村長が必要と認める事項": null,
        "受入対象者": null,
        "備考": ""
      }
    },
    {
      "type": "Feature",
      "geometry": {
        "type": "Point",
        "coordinates": [
          136.813099,
          35.11872
        ]
      },
      "properties": {
        "NO": "24",
        "共通ID": "E2310000096111",
        "施設・場所名": "福春小学校",
        "住所": "愛知県名古屋市港区春田野1-2901",
        "指定緊急避難場所との住所同一": "1",
        "その他市町村長が必要と認める事項": null,
        "受入対象者": null,
        "備考": ""
      }
    },
    {
      "type": "Feature",
      "geometry": {
        "type": "Point",
        "coordinates": [
          136.816565,
          35.112485
        ]
      },
      "properties": {
        "NO": "25",
        "共通ID": "E2310000101111",
        "施設・場所名": "南陽地区会館",
        "住所": "愛知県名古屋市港区春田野3-101",
        "指定緊急避難場所との住所同一": "1",
        "その他市町村長が必要と認める事項": null,
        "受入対象者": null,
        "備考": ""
      }
    },
    {
      "type": "Feature",
      "geometry": {
        "type": "Point",
        "coordinates": [
          136.815797,
          35.112548
        ]
      },
      "properties": {
        "NO": "26",
        "共通ID": "E2310000102111",
        "施設・場所名": "南陽中学校",
        "住所": "愛知県名古屋市港区春田野3-121",
        "指定緊急避難場所との住所同一": "1",
        "その他市町村長が必要と認める事項": null,
        "受入対象者": null,
        "備考": ""
      }
    },
    {
      "type": "Feature",
      "geometry": {
        "type": "Point",
        "coordinates": [
          136.849953,
          35.115662
        ]
      },
      "properties": {
        "NO": "27",
        "共通ID": "E2310000110111",
        "施設・場所名": "小碓幼稚園",
        "住所": "愛知県名古屋市港区小碓3-134",
        "指定緊急避難場所との住所同一": "",
        "その他市町村長が必要と認める事項": null,
        "受入対象者": null,
        "備考": ""
      }
    },
    {
      "type": "Feature",
      "geometry": {
        "type": "Point",
        "coordinates": [
          136.84753,
          35.115992
        ]
      },
      "properties": {
        "NO": "28",
        "共通ID": "E2310000111111",
        "施設・場所名": "明徳小学校",
        "住所": "愛知県名古屋市港区小碓3-259",
        "指定緊急避難場所との住所同一": "1",
        "その他市町村長が必要と認める事項": "",
        "受入対象者": "",
        "備考": ""
      }
    },
    {
      "type": "Feature",
      "geometry": {
        "type": "Point",
        "coordinates": [
          136.850063,
          35.117494
        ]
      },
      "properties": {
        "NO": "29",
        "共通ID": "E2310000113111",
        "施設・場所名": "明徳コミュニティセンター",
        "住所": "愛知県名古屋市港区小碓4-147",
        "指定緊急避難場所との住所同一": "1",
        "その他市町村長が必要と認める事項": null,
        "受入対象者": null,
        "備考": ""
      }
    },
    {
      "type": "Feature",
      "geometry": {
        "type": "Point",
        "coordinates": [
          136.829962,
          35.11443
        ]
      },
      "properties": {
        "NO": "30",
        "共通ID": "E2310000118111",
        "施設・場所名": "富士文化幼稚園",
        "住所": "愛知県名古屋市港区小賀須1-801",
        "指定緊急避難場所との住所同一": "",
        "その他市町村長が必要と認める事項": null,
        "受入対象者": null,
        "備考": ""
      }
    },
    {
      "type": "Feature",
      "geometry": {
        "type": "Point",
        "coordinates": [
          136.813403,
          35.097045
        ]
      },
      "properties": {
        "NO": "31",
        "共通ID": "E2310000129111",
        "施設・場所名": "小川緊急避難所",
        "住所": "愛知県名古屋市港区小川3-134",
        "指定緊急避難場所との住所同一": "1",
        "その他市町村長が必要と認める事項": null,
        "受入対象者": null,
        "備考": ""
      }
    },
    {
      "type": "Feature",
      "geometry": {
        "type": "Point",
        "coordinates": [
          136.875072,
          35.113761
        ]
      },
      "properties": {
        "NO": "32",
        "共通ID": "E2310000130111",
        "施設・場所名": "成章コミュニティセンター",
        "住所": "愛知県名古屋市港区新船町4-1-2",
        "指定緊急避難場所との住所同一": "1",
        "その他市町村長が必要と認める事項": null,
        "受入対象者": null,
        "備考": ""
      }
    },
    {
      "type": "Feature",
      "geometry": {
        "type": "Point",
        "coordinates": [
          136.801137,
          35.111021
        ]
      },
      "properties": {
        "NO": "33",
        "共通ID": "E2310000139111",
        "施設・場所名": "南陽第三保育園",
        "住所": "愛知県名古屋市港区新茶屋5-2004",
        "指定緊急避難場所との住所同一": "",
        "その他市町村長が必要と認める事項": "",
        "受入対象者": "",
        "備考": ""
      }
    },
    {
      "type": "Feature",
      "geometry": {
        "type": "Point",
        "coordinates": [
          136.801863,
          35.109372
        ]
      },
      "properties": {
        "NO": "34",
        "共通ID": "E2310000140111",
        "施設・場所名": "茶屋後土地改良区事務所",
        "住所": "愛知県名古屋市港区新茶屋5-2602",
        "指定緊急避難場所との住所同一": "1",
        "その他市町村長が必要と認める事項": null,
        "受入対象者": null,
        "備考": ""
      }
    },
    {
      "type": "Feature",
      "geometry": {
        "type": "Point",
        "coordinates": [
          136.845213,
          35.0972
        ]
      },
      "properties": {
        "NO": "35",
        "共通ID": "E2310000143111",
        "施設・場所名": "神宮寺小学校",
        "住所": "愛知県名古屋市港区神宮寺2-501",
        "指定緊急避難場所との住所同一": "1",
        "その他市町村長が必要と認める事項": null,
        "受入対象者": null,
        "備考": ""
      }
    },
    {
      "type": "Feature",
      "geometry": {
        "type": "Point",
        "coordinates": [
          136.858267,
          35.119717
        ]
      },
      "properties": {
        "NO": "36",
        "共通ID": "E2310000154111",
        "施設・場所名": "港北幼稚園",
        "住所": "愛知県名古屋市港区正徳町5-135",
        "指定緊急避難場所との住所同一": "",
        "その他市町村長が必要と認める事項": null,
        "受入対象者": null,
        "備考": ""
      }
    },
    {
      "type": "Feature",
      "geometry": {
        "type": "Point",
        "coordinates": [
          136.863518,
          35.116209
        ]
      },
      "properties": {
        "NO": "37",
        "共通ID": "E2310000162111",
        "施設・場所名": "正保小学校",
        "住所": "愛知県名古屋市港区正保町5-22",
        "指定緊急避難場所との住所同一": "1",
        "その他市町村長が必要と認める事項": null,
        "受入対象者": null,
        "備考": ""
      }
    },
    {
      "type": "Feature",
      "geometry": {
        "type": "Point",
        "coordinates": [
          136.858586,
          35.113959
        ]
      },
      "properties": {
        "NO": "38",
        "共通ID": "E2310000165111",
        "施設・場所名": "正保コミュニティセンター",
        "住所": "愛知県名古屋市港区正保町8-134",
        "指定緊急避難場所との住所同一": "1",
        "その他市町村長が必要と認める事項": null,
        "受入対象者": null,
        "備考": ""
      }
    },
    {
      "type": "Feature",
      "geometry": {
        "type": "Point",
        "coordinates": [
          136.825975,
          35.109667
        ]
      },
      "properties": {
        "NO": "39",
        "共通ID": "E2310000168111",
        "施設・場所名": "南陽東中学校",
        "住所": "愛知県名古屋市港区西茶屋1-35-2",
        "指定緊急避難場所との住所同一": "1",
        "その他市町村長が必要と認める事項": null,
        "受入対象者": null,
        "備考": ""
      }
    },
    {
      "type": "Feature",
      "geometry": {
        "type": "Point",
        "coordinates": [
          136.822379,
          35.097874
        ]
      },
      "properties": {
        "NO": "40",
        "共通ID": "E2310000171111",
        "施設・場所名": "川原緊急避難所",
        "住所": "愛知県名古屋市港区西茶屋4-156",
        "指定緊急避難場所との住所同一": "1",
        "その他市町村長が必要と認める事項": null,
        "受入対象者": null,
        "備考": ""
      }
    },
    {
      "type": "Feature",
      "geometry": {
        "type": "Point",
        "coordinates": [
          136.803828,
          35.115557
        ]
      },
      "properties": {
        "NO": "41",
        "共通ID": "E2310000174111",
        "施設・場所名": "西福田小学校",
        "住所": "愛知県名古屋市港区西福田5-1601",
        "指定緊急避難場所との住所同一": "1",
        "その他市町村長が必要と認める事項": null,
        "受入対象者": null,
        "備考": ""
      }
    },
    {
      "type": "Feature",
      "geometry": {
        "type": "Point",
        "coordinates": [
          136.895318,
          35.070804
        ]
      },
      "properties": {
        "NO": "42",
        "共通ID": "E2310000186111",
        "施設・場所名": "名古屋市中央卸売市場南部市場",
        "住所": "愛知県名古屋市港区船見町1-39",
        "指定緊急避難場所との住所同一": "1",
        "その他市町村長が必要と認める事項": null,
        "受入対象者": null,
        "備考": ""
      }
    },
    {
      "type": "Feature",
      "geometry": {
        "type": "Point",
        "coordinates": [
          136.831021,
          35.115226
        ]
      },
      "properties": {
        "NO": "43",
        "共通ID": "E2310000191111",
        "施設・場所名": "福田コミュニティセンター",
        "住所": "愛知県名古屋市港区船頭場4-213",
        "指定緊急避難場所との住所同一": "1",
        "その他市町村長が必要と認める事項": null,
        "受入対象者": null,
        "備考": ""
      }
    },
    {
      "type": "Feature",
      "geometry": {
        "type": "Point",
        "coordinates": [
          136.843359,
          35.099863
        ]
      },
      "properties": {
        "NO": "44",
        "共通ID": "E2310000201111",
        "施設・場所名": "たからうらこども園",
        "住所": "愛知県名古屋市港区多加良浦町5-3",
        "指定緊急避難場所との住所同一": "",
        "その他市町村長が必要と認める事項": null,
        "受入対象者": null,
        "備考": ""
      }
    },
    {
      "type": "Feature",
      "geometry": {
        "type": "Point",
        "coordinates": [
          136.869113,
          35.110509
        ]
      },
      "properties": {
        "NO": "45",
        "共通ID": "E2310001764111",
        "施設・場所名": "名古屋場外勝馬投票券発売所（サンアール名古屋・Ｊ－ＰＬＡＣＥ名古屋）",
        "住所": "愛知県名古屋市港区泰明町1-1-3",
        "指定緊急避難場所との住所同一": "1",
        "その他市町村長が必要と認める事項": "",
        "受入対象者": "",
        "備考": ""
      }
    },
    {
      "type": "Feature",
      "geometry": {
        "type": "Point",
        "coordinates": [
          136.868516,
          35.096892
        ]
      },
      "properties": {
        "NO": "46",
        "共通ID": "E2310000207111",
        "施設・場所名": "大手小学校",
        "住所": "愛知県名古屋市港区大手町3-28",
        "指定緊急避難場所との住所同一": "1",
        "その他市町村長が必要と認める事項": null,
        "受入対象者": null,
        "備考": ""
      }
    },
    {
      "type": "Feature",
      "geometry": {
        "type": "Point",
        "coordinates": [
          136.868898,
          35.094075
        ]
      },
      "properties": {
        "NO": "47",
        "共通ID": "E2310000208111",
        "施設・場所名": "大手コミュニティセンター",
        "住所": "愛知県名古屋市港区大手町6-24",
        "指定緊急避難場所との住所同一": "",
        "その他市町村長が必要と認める事項": "",
        "受入対象者": "",
        "備考": ""
      }
    },
    {
      "type": "Feature",
      "geometry": {
        "type": "Point",
        "coordinates": [
          136.811268,
          35.109195
        ]
      },
      "properties": {
        "NO": "48",
        "共通ID": "E2310000210111",
        "施設・場所名": "県立南陽高等学校",
        "住所": "愛知県名古屋市港区大西2-99",
        "指定緊急避難場所との住所同一": "1",
        "その他市町村長が必要と認める事項": null,
        "受入対象者": null,
        "備考": ""
      }
    },
    {
      "type": "Feature",
      "geometry": {
        "type": "Point",
        "coordinates": [
          136.886943,
          35.11239
        ]
      },
      "properties": {
        "NO": "49",
        "共通ID": "E2310000213111",
        "施設・場所名": "中川小学校",
        "住所": "愛知県名古屋市港区辰巳町37-6",
        "指定緊急避難場所との住所同一": "1",
        "その他市町村長が必要と認める事項": null,
        "受入対象者": null,
        "備考": ""
      }
    },
    {
      "type": "Feature",
      "geometry": {
        "type": "Point",
        "coordinates": [
          136.825636,
          35.112451
        ]
      },
      "properties": {
        "NO": "50",
        "共通ID": "E2310000218111",
        "施設・場所名": "中日本葬儀社ナゴヤ港斎苑",
        "住所": "愛知県名古屋市港区知多2-201",
        "指定緊急避難場所との住所同一": "",
        "その他市町村長が必要と認める事項": null,
        "受入対象者": null,
        "備考": ""
      }
    },
    {
      "type": "Feature",
      "geometry": {
        "type": "Point",
        "coordinates": [
          136.822229,
          35.111912
        ]
      },
      "properties": {
        "NO": "51",
        "共通ID": "E2310000220111",
        "施設・場所名": "南陽ひかり保育園",
        "住所": "愛知県名古屋市港区知多2-2401",
        "指定緊急避難場所との住所同一": "1",
        "その他市町村長が必要と認める事項": "",
        "受入対象者": "",
        "備考": ""
      }
    },
    {
      "type": "Feature",
      "geometry": {
        "type": "Point",
        "coordinates": [
          136.878591,
          35.068231
        ]
      },
      "properties": {
        "NO": "52",
        "共通ID": "E2310000226111",
        "施設・場所名": "（株）ＪＥＲＡ　新名古屋火力発電所",
        "住所": "愛知県名古屋市港区潮見町34",
        "指定緊急避難場所との住所同一": "",
        "その他市町村長が必要と認める事項": null,
        "受入対象者": null,
        "備考": ""
      }
    },
    {
      "type": "Feature",
      "geometry": {
        "type": "Point",
        "coordinates": [
          136.857771,
          35.111329
        ]
      },
      "properties": {
        "NO": "53",
        "共通ID": "E2310000230111",
        "施設・場所名": "小碓小学校",
        "住所": "愛知県名古屋市港区土古町4-59",
        "指定緊急避難場所との住所同一": "1",
        "その他市町村長が必要と認める事項": null,
        "受入対象者": null,
        "備考": ""
      }
    },
    {
      "type": "Feature",
      "geometry": {
        "type": "Point",
        "coordinates": [
          136.892842,
          35.093022
        ]
      },
      "properties": {
        "NO": "54",
        "共通ID": "E2310000234111",
        "施設・場所名": "東築地小学校",
        "住所": "愛知県名古屋市港区東築地町26",
        "指定緊急避難場所との住所同一": "1",
        "その他市町村長が必要と認める事項": null,
        "受入対象者": null,
        "備考": ""
      }
    },
    {
      "type": "Feature",
      "geometry": {
        "type": "Point",
        "coordinates": [
          136.832393,
          35.107072
        ]
      },
      "properties": {
        "NO": "55",
        "共通ID": "E2310000236111",
        "施設・場所名": "南陽第一保育園",
        "住所": "愛知県名古屋市港区東茶屋2-305",
        "指定緊急避難場所との住所同一": "1",
        "その他市町村長が必要と認める事項": "",
        "受入対象者": "",
        "備考": ""
      }
    },
    {
      "type": "Feature",
      "geometry": {
        "type": "Point",
        "coordinates": [
          136.829294,
          35.106656
        ]
      },
      "properties": {
        "NO": "56",
        "共通ID": "E2310000237111",
        "施設・場所名": "南陽小学校",
        "住所": "愛知県名古屋市港区東茶屋2-328",
        "指定緊急避難場所との住所同一": "1",
        "その他市町村長が必要と認める事項": null,
        "受入対象者": null,
        "備考": ""
      }
    },
    {
      "type": "Feature",
      "geometry": {
        "type": "Point",
        "coordinates": [
          136.82819,
          35.106912
        ]
      },
      "properties": {
        "NO": "57",
        "共通ID": "E2310000238111",
        "施設・場所名": "南陽センター",
        "住所": "愛知県名古屋市港区東茶屋2-330",
        "指定緊急避難場所との住所同一": "1",
        "その他市町村長が必要と認める事項": null,
        "受入対象者": null,
        "備考": ""
      }
    },
    {
      "type": "Feature",
      "geometry": {
        "type": "Point",
        "coordinates": [
          136.83077,
          35.103644
        ]
      },
      "properties": {
        "NO": "58",
        "共通ID": "E2310000241111",
        "施設・場所名": "南陽交流プラザ",
        "住所": "愛知県名古屋市港区東茶屋3-123",
        "指定緊急避難場所との住所同一": "1",
        "その他市町村長が必要と認める事項": null,
        "受入対象者": null,
        "備考": ""
      }
    },
    {
      "type": "Feature",
      "geometry": {
        "type": "Point",
        "coordinates": [
          136.872815,
          35.113108
        ]
      },
      "properties": {
        "NO": "59",
        "共通ID": "E2310000242111",
        "施設・場所名": "成章小学校",
        "住所": "愛知県名古屋市港区東土古町1-3",
        "指定緊急避難場所との住所同一": "1",
        "その他市町村長が必要と認める事項": null,
        "受入対象者": null,
        "備考": ""
      }
    },
    {
      "type": "Feature",
      "geometry": {
        "type": "Point",
        "coordinates": [
          136.850692,
          35.110375
        ]
      },
      "properties": {
        "NO": "60",
        "共通ID": "E2310000245111",
        "施設・場所名": "当知コミュニティセンター",
        "住所": "愛知県名古屋市港区当知1-601-1",
        "指定緊急避難場所との住所同一": "1",
        "その他市町村長が必要と認める事項": null,
        "受入対象者": null,
        "備考": ""
      }
    },
    {
      "type": "Feature",
      "geometry": {
        "type": "Point",
        "coordinates": [
          136.84923,
          35.111627
        ]
      },
      "properties": {
        "NO": "61",
        "共通ID": "E2310000246111",
        "施設・場所名": "当知中学校",
        "住所": "愛知県名古屋市港区当知1-608",
        "指定緊急避難場所との住所同一": "1",
        "その他市町村長が必要と認める事項": null,
        "受入対象者": null,
        "備考": ""
      }
    },
    {
      "type": "Feature",
      "geometry": {
        "type": "Point",
        "coordinates": [
          136.84459,
          35.111096
        ]
      },
      "properties": {
        "NO": "62",
        "共通ID": "E2310000248111",
        "施設・場所名": "当知小学校",
        "住所": "愛知県名古屋市港区当知3-2401",
        "指定緊急避難場所との住所同一": "1",
        "その他市町村長が必要と認める事項": null,
        "受入対象者": null,
        "備考": ""
      }
    },
    {
      "type": "Feature",
      "geometry": {
        "type": "Point",
        "coordinates": [
          136.834078,
          35.098185
        ]
      },
      "properties": {
        "NO": "63",
        "共通ID": "E2310000251111",
        "施設・場所名": "藤高緊急避難所",
        "住所": "愛知県名古屋市港区藤高1-81",
        "指定緊急避難場所との住所同一": "1",
        "その他市町村長が必要と認める事項": null,
        "受入対象者": null,
        "備考": ""
      }
    },
    {
      "type": "Feature",
      "geometry": {
        "type": "Point",
        "coordinates": [
          136.833898,
          35.087922
        ]
      },
      "properties": {
        "NO": "64",
        "共通ID": "E2310000252111",
        "施設・場所名": "藤前会館",
        "住所": "愛知県名古屋市港区藤前1-742",
        "指定緊急避難場所との住所同一": "1",
        "その他市町村長が必要と認める事項": null,
        "受入対象者": null,
        "備考": ""
      }
    },
    {
      "type": "Feature",
      "geometry": {
        "type": "Point",
        "coordinates": [
          136.881391,
          35.118185
        ]
      },
      "properties": {
        "NO": "65",
        "共通ID": "E2310000256111",
        "施設・場所名": "東海コミュニティセンター",
        "住所": "愛知県名古屋市港区南十番町1-3",
        "指定緊急避難場所との住所同一": "1",
        "その他市町村長が必要と認める事項": null,
        "受入対象者": null,
        "備考": ""
      }
    },
    {
      "type": "Feature",
      "geometry": {
        "type": "Point",
        "coordinates": [
          136.793981,
          35.113812
        ]
      },
      "properties": {
        "NO": "66",
        "共通ID": "E2310000257111",
        "施設・場所名": "協和土地改良区事務所",
        "住所": "愛知県名古屋市港区南陽町六軒家1403",
        "指定緊急避難場所との住所同一": "",
        "その他市町村長が必要と認める事項": null,
        "受入対象者": null,
        "備考": ""
      }
    },
    {
      "type": "Feature",
      "geometry": {
        "type": "Point",
        "coordinates": [
          136.88174,
          35.097702
        ]
      },
      "properties": {
        "NO": "67",
        "共通ID": "E2310000268111",
        "施設・場所名": "西築地小学校",
        "住所": "愛知県名古屋市港区浜1-2-33",
        "指定緊急避難場所との住所同一": "1",
        "その他市町村長が必要と認める事項": null,
        "受入対象者": null,
        "備考": ""
      }
    },
    {
      "type": "Feature",
      "geometry": {
        "type": "Point",
        "coordinates": [
          136.882066,
          35.095864
        ]
      },
      "properties": {
        "NO": "68",
        "共通ID": "E2310000270111",
        "施設・場所名": "愛知海運",
        "住所": "愛知県名古屋市港区浜2-1-11",
        "指定緊急避難場所との住所同一": "1",
        "その他市町村長が必要と認める事項": null,
        "受入対象者": null,
        "備考": ""
      }
    },
    {
      "type": "Feature",
      "geometry": {
        "type": "Point",
        "coordinates": [
          136.880687,
          35.096839
        ]
      },
      "properties": {
        "NO": "69",
        "共通ID": "E2310000269111",
        "施設・場所名": "西築地コミュニティセンター",
        "住所": "愛知県名古屋市港区浜2-10-31",
        "指定緊急避難場所との住所同一": "1",
        "その他市町村長が必要と認める事項": null,
        "受入対象者": null,
        "備考": ""
      }
    },
    {
      "type": "Feature",
      "geometry": {
        "type": "Point",
        "coordinates": [
          136.801801,
          35.114858
        ]
      },
      "properties": {
        "NO": "70",
        "共通ID": "E2310000271111",
        "施設・場所名": "西福田コミュニティセンター",
        "住所": "愛知県名古屋市港区福屋2-103",
        "指定緊急避難場所との住所同一": "1",
        "その他市町村長が必要と認める事項": null,
        "受入対象者": null,
        "備考": ""
      }
    },
    {
      "type": "Feature",
      "geometry": {
        "type": "Point",
        "coordinates": [
          136.853065,
          35.094323
        ]
      },
      "properties": {
        "NO": "71",
        "共通ID": "E2310000273111",
        "施設・場所名": "宝神中学校",
        "住所": "愛知県名古屋市港区宝神1-77",
        "指定緊急避難場所との住所同一": "1",
        "その他市町村長が必要と認める事項": null,
        "受入対象者": null,
        "備考": ""
      }
    },
    {
      "type": "Feature",
      "geometry": {
        "type": "Point",
        "coordinates": [
          136.847643,
          35.086749
        ]
      },
      "properties": {
        "NO": "72",
        "共通ID": "E2310000278111",
        "施設・場所名": "上下水道局宝神水処理センター",
        "住所": "愛知県名古屋市港区宝神4-2501",
        "指定緊急避難場所との住所同一": "1",
        "その他市町村長が必要と認める事項": null,
        "受入対象者": null,
        "備考": ""
      }
    },
    {
      "type": "Feature",
      "geometry": {
        "type": "Point",
        "coordinates": [
          136.847776,
          35.091923
        ]
      },
      "properties": {
        "NO": "73",
        "共通ID": "E2310000283111",
        "施設・場所名": "港西コミュニティセンター",
        "住所": "愛知県名古屋市港区宝神5-308",
        "指定緊急避難場所との住所同一": "1",
        "その他市町村長が必要と認める事項": null,
        "受入対象者": null,
        "備考": ""
      }
    },
    {
      "type": "Feature",
      "geometry": {
        "type": "Point",
        "coordinates": [
          136.842657,
          35.097515
        ]
      },
      "properties": {
        "NO": "74",
        "共通ID": "E2310000285111",
        "施設・場所名": "神宮寺コミュニティセンター",
        "住所": "愛知県名古屋市港区宝神町字会所裏724-1",
        "指定緊急避難場所との住所同一": "1",
        "その他市町村長が必要と認める事項": null,
        "受入対象者": null,
        "備考": ""
      }
    },
    {
      "type": "Feature",
      "geometry": {
        "type": "Point",
        "coordinates": [
          136.900484,
          35.097246
        ]
      },
      "properties": {
        "NO": "75",
        "共通ID": "E2310000299111",
        "施設・場所名": "東築地コミュニティ・多目的センター",
        "住所": "愛知県名古屋市港区木場町9-10",
        "指定緊急避難場所との住所同一": "1",
        "その他市町村長が必要と認める事項": null,
        "受入対象者": null,
        "備考": ""
      }
    },
    {
      "type": "Feature",
      "geometry": {
        "type": "Point",
        "coordinates": [
          136.898291,
          35.09842
        ]
      },
      "properties": {
        "NO": "76",
        "共通ID": "E2310000304111",
        "施設・場所名": "東築地学区防災センター",
        "住所": "愛知県名古屋市港区木場町9-9",
        "指定緊急避難場所との住所同一": "1",
        "その他市町村長が必要と認める事項": null,
        "受入対象者": null,
        "備考": ""
      }
    },
    {
      "type": "Feature",
      "geometry": {
        "type": "Point",
        "coordinates": [
          136.855008,
          35.079624
        ]
      },
      "properties": {
        "NO": "77",
        "共通ID": "E2310000307111",
        "施設・場所名": "野跡小学校",
        "住所": "愛知県名古屋市港区野跡1-4-11",
        "指定緊急避難場所との住所同一": "1",
        "その他市町村長が必要と認める事項": null,
        "受入対象者": null,
        "備考": ""
      }
    },
    {
      "type": "Feature",
      "geometry": {
        "type": "Point",
        "coordinates": [
          136.854506,
          35.073889
        ]
      },
      "properties": {
        "NO": "78",
        "共通ID": "E2310000308111",
        "施設・場所名": "シティファミリー鴨浦集会所",
        "住所": "愛知県名古屋市港区野跡2-5-4",
        "指定緊急避難場所との住所同一": "1",
        "その他市町村長が必要と認める事項": null,
        "受入対象者": null,
        "備考": ""
      }
    },
    {
      "type": "Feature",
      "geometry": {
        "type": "Point",
        "coordinates": [
          136.852212,
          35.074937
        ]
      },
      "properties": {
        "NO": "79",
        "共通ID": "E2310000310111",
        "施設・場所名": "市営みなと荘集会所（７棟）",
        "住所": "愛知県名古屋市港区野跡3-5",
        "指定緊急避難場所との住所同一": "1",
        "その他市町村長が必要と認める事項": null,
        "受入対象者": null,
        "備考": ""
      }
    },
    {
      "type": "Feature",
      "geometry": {
        "type": "Point",
        "coordinates": [
          136.85217,
          35.076051
        ]
      },
      "properties": {
        "NO": "80",
        "共通ID": "E2310000311111",
        "施設・場所名": "市営みなと荘集会所（６棟）・市営みなとシルバー南集会所",
        "住所": "愛知県名古屋市港区野跡3-5-4",
        "指定緊急避難場所との住所同一": "1",
        "その他市町村長が必要と認める事項": null,
        "受入対象者": null,
        "備考": ""
      }
    },
    {
      "type": "Feature",
      "geometry": {
        "type": "Point",
        "coordinates": [
          136.853422,
          35.078217
        ]
      },
      "properties": {
        "NO": "81",
        "共通ID": "E2310000313111",
        "施設・場所名": "市営みなと荘集会所（１棟）",
        "住所": "愛知県名古屋市港区野跡4-1",
        "指定緊急避難場所との住所同一": "1",
        "その他市町村長が必要と認める事項": null,
        "受入対象者": null,
        "備考": ""
      }
    },
    {
      "type": "Feature",
      "geometry": {
        "type": "Point",
        "coordinates": [
          136.85244,
          35.07664
        ]
      },
      "properties": {
        "NO": "82",
        "共通ID": "E2310000316111",
        "施設・場所名": "野跡コミュニティセンター",
        "住所": "愛知県名古屋市港区野跡4-3-13",
        "指定緊急避難場所との住所同一": "1",
        "その他市町村長が必要と認める事項": null,
        "受入対象者": null,
        "備考": ""
      }
    },
    {
      "type": "Feature",
      "geometry": {
        "type": "Point",
        "coordinates": [
          136.849334,
          35.079897
        ]
      },
      "properties": {
        "NO": "83",
        "共通ID": "E2310000321111",
        "施設・場所名": "稲永スポーツセンター",
        "住所": "愛知県名古屋市港区野跡5-1-10",
        "指定緊急避難場所との住所同一": "1",
        "その他市町村長が必要と認める事項": "",
        "受入対象者": "",
        "備考": ""
      }
    },
    {
      "type": "Feature",
      "geometry": {
        "type": "Point",
        "coordinates": [
          136.853173,
          35.0829
        ]
      },
      "properties": {
        "NO": "84",
        "共通ID": "E2310000323111",
        "施設・場所名": "市営稲永荘集会所",
        "住所": "愛知県名古屋市港区野跡5-3",
        "指定緊急避難場所との住所同一": "1",
        "その他市町村長が必要と認める事項": null,
        "受入対象者": null,
        "備考": ""
      }
    },
    {
      "type": "Feature",
      "geometry": {
        "type": "Point",
        "coordinates": [
          136.85001,
          35.104527
        ]
      },
      "properties": {
        "NO": "85",
        "共通ID": "E2310000324111",
        "施設・場所名": "高木コミュニティセンター",
        "住所": "愛知県名古屋市港区油屋町2-15",
        "指定緊急避難場所との住所同一": "1",
        "その他市町村長が必要と認める事項": null,
        "受入対象者": null,
        "備考": ""
      }
    },
    {
      "type": "Feature",
      "geometry": {
        "type": "Point",
        "coordinates": [
          137.020203,
          35.245041
        ]
      },
      "properties": {
        "NO": "86",
        "共通ID": "E2310001644111",
        "施設・場所名": "志段味中学校",
        "住所": "愛知県名古屋市守山区下志段味1-1309",
        "指定緊急避難場所との住所同一": "1",
        "その他市町村長が必要と認める事項": "",
        "受入対象者": "",
        "備考": ""
      }
    },
    {
      "type": "Feature",
      "geometry": {
        "type": "Point",
        "coordinates": [
          137.021585,
          35.243934
        ]
      },
      "properties": {
        "NO": "87",
        "共通ID": "E2310001646111",
        "施設・場所名": "志段味地区会館",
        "住所": "愛知県名古屋市守山区下志段味1-1401",
        "指定緊急避難場所との住所同一": "1",
        "その他市町村長が必要と認める事項": "",
        "受入対象者": "",
        "備考": ""
      }
    },
    {
      "type": "Feature",
      "geometry": {
        "type": "Point",
        "coordinates": [
          137.019912,
          35.241858
        ]
      },
      "properties": {
        "NO": "88",
        "共通ID": "E2310001648111",
        "施設・場所名": "下志段味コミュニティセンター",
        "住所": "愛知県名古屋市守山区下志段味2-1208",
        "指定緊急避難場所との住所同一": "1",
        "その他市町村長が必要と認める事項": "",
        "受入対象者": "",
        "備考": ""
      }
    },
    {
      "type": "Feature",
      "geometry": {
        "type": "Point",
        "coordinates": [
          136.997144,
          35.234345
        ]
      },
      "properties": {
        "NO": "89",
        "共通ID": "E2310000326111",
        "施設・場所名": "吉根小学校",
        "住所": "愛知県名古屋市守山区吉根1-1601",
        "指定緊急避難場所との住所同一": "1",
        "その他市町村長が必要と認める事項": null,
        "受入対象者": null,
        "備考": ""
      }
    },
    {
      "type": "Feature",
      "geometry": {
        "type": "Point",
        "coordinates": [
          137.000208,
          35.235878
        ]
      },
      "properties": {
        "NO": "90",
        "共通ID": "E2310000327111",
        "施設・場所名": "吉根公民館",
        "住所": "愛知県名古屋市守山区吉根2-1705",
        "指定緊急避難場所との住所同一": "1",
        "その他市町村長が必要と認める事項": null,
        "受入対象者": null,
        "備考": ""
      }
    },
    {
      "type": "Feature",
      "geometry": {
        "type": "Point",
        "coordinates": [
          137.001786,
          35.212929
        ]
      },
      "properties": {
        "NO": "91",
        "共通ID": "E2310000332111",
        "施設・場所名": "大森北小学校",
        "住所": "愛知県名古屋市守山区御膳洞321",
        "指定緊急避難場所との住所同一": "1",
        "その他市町村長が必要と認める事項": null,
        "受入対象者": null,
        "備考": ""
      }
    },
    {
      "type": "Feature",
      "geometry": {
        "type": "Point",
        "coordinates": [
          137.005849,
          35.196197
        ]
      },
      "properties": {
        "NO": "92",
        "共通ID": "E2310000333111",
        "施設・場所名": "天子田コミュニティセンター",
        "住所": "愛知県名古屋市守山区向台2-1605",
        "指定緊急避難場所との住所同一": "1",
        "その他市町村長が必要と認める事項": null,
        "受入対象者": null,
        "備考": ""
      }
    },
    {
      "type": "Feature",
      "geometry": {
        "type": "Point",
        "coordinates": [
          136.947213,
          35.20819
        ]
      },
      "properties": {
        "NO": "93",
        "共通ID": "E2310000334111",
        "施設・場所名": "瀬古会館",
        "住所": "愛知県名古屋市守山区幸心2-825",
        "指定緊急避難場所との住所同一": "",
        "その他市町村長が必要と認める事項": null,
        "受入対象者": null,
        "備考": ""
      }
    },
    {
      "type": "Feature",
      "geometry": {
        "type": "Point",
        "coordinates": [
          136.961129,
          35.192892
        ]
      },
      "properties": {
        "NO": "94",
        "共通ID": "E2310000336111",
        "施設・場所名": "廿軒家小学校",
        "住所": "愛知県名古屋市守山区更屋敷16-16",
        "指定緊急避難場所との住所同一": "1",
        "その他市町村長が必要と認める事項": null,
        "受入対象者": null,
        "備考": ""
      }
    },
    {
      "type": "Feature",
      "geometry": {
        "type": "Point",
        "coordinates": [
          137.018142,
          35.239091
        ]
      },
      "properties": {
        "NO": "95",
        "共通ID": "E2310001643111",
        "施設・場所名": "下志段味小学校",
        "住所": "愛知県名古屋市守山区桜坂1-1502",
        "指定緊急避難場所との住所同一": "1",
        "その他市町村長が必要と認める事項": "",
        "受入対象者": "",
        "備考": ""
      }
    },
    {
      "type": "Feature",
      "geometry": {
        "type": "Point",
        "coordinates": [
          137.016444,
          35.234969
        ]
      },
      "properties": {
        "NO": "96",
        "共通ID": "E2310001647111",
        "施設・場所名": "志段味スポーツランド",
        "住所": "愛知県名古屋市守山区桜坂5-105",
        "指定緊急避難場所との住所同一": "1",
        "その他市町村長が必要と認める事項": "",
        "受入対象者": "",
        "備考": ""
      }
    },
    {
      "type": "Feature",
      "geometry": {
        "type": "Point",
        "coordinates": [
          137.002307,
          35.232124
        ]
      },
      "properties": {
        "NO": "97",
        "共通ID": "E2310000337111",
        "施設・場所名": "吉根中学校",
        "住所": "愛知県名古屋市守山区笹ヶ根2-102",
        "指定緊急避難場所との住所同一": "1",
        "その他市町村長が必要と認める事項": null,
        "受入対象者": null,
        "備考": ""
      }
    },
    {
      "type": "Feature",
      "geometry": {
        "type": "Point",
        "coordinates": [
          137.013854,
          35.191786
        ]
      },
      "properties": {
        "NO": "98",
        "共通ID": "E2310000338111",
        "施設・場所名": "森孝中学校",
        "住所": "愛知県名古屋市守山区四軒家2-405",
        "指定緊急避難場所との住所同一": "1",
        "その他市町村長が必要と認める事項": null,
        "受入対象者": null,
        "備考": ""
      }
    },
    {
      "type": "Feature",
      "geometry": {
        "type": "Point",
        "coordinates": [
          136.956901,
          35.1976
        ]
      },
      "properties": {
        "NO": "99",
        "共通ID": "E2310000339111",
        "施設・場所名": "守山生涯学習センター",
        "住所": "愛知県名古屋市守山区守山3-2-6",
        "指定緊急避難場所との住所同一": "1",
        "その他市町村長が必要と認める事項": null,
        "受入対象者": null,
        "備考": ""
      }
    },
    {
      "type": "Feature",
      "geometry": {
        "type": "Point",
        "coordinates": [
          136.977065,
          35.204624
        ]
      },
      "properties": {
        "NO": "100",
        "共通ID": "E2310000340111",
        "施設・場所名": "小幡小学校",
        "住所": "愛知県名古屋市守山区小幡1-3-4",
        "指定緊急避難場所との住所同一": "1",
        "その他市町村長が必要と認める事項": null,
        "受入対象者": null,
        "備考": ""
      }
    },
    {
      "type": "Feature",
      "geometry": {
        "type": "Point",
        "coordinates": [
          136.976879,
          35.207527
        ]
      },
      "properties": {
        "NO": "101",
        "共通ID": "E2310000341111",
        "施設・場所名": "小幡コミュニティセンター",
        "住所": "愛知県名古屋市守山区小幡2-3-7",
        "指定緊急避難場所との住所同一": "1",
        "その他市町村長が必要と認める事項": null,
        "受入対象者": null,
        "備考": ""
      }
    },
    {
      "type": "Feature",
      "geometry": {
        "type": "Point",
        "coordinates": [
          136.981285,
          35.204828
        ]
      },
      "properties": {
        "NO": "102",
        "共通ID": "E2310000342111",
        "施設・場所名": "守山東中学校",
        "住所": "愛知県名古屋市守山区小幡5-7-3",
        "指定緊急避難場所との住所同一": "1",
        "その他市町村長が必要と認める事項": null,
        "受入対象者": null,
        "備考": ""
      }
    },
    {
      "type": "Feature",
      "geometry": {
        "type": "Point",
        "coordinates": [
          136.975944,
          35.200037
        ]
      },
      "properties": {
        "NO": "103",
        "共通ID": "E2310000343111",
        "施設・場所名": "苗代コミュニティセンター",
        "住所": "愛知県名古屋市守山区小幡南1-19-12",
        "指定緊急避難場所との住所同一": "1",
        "その他市町村長が必要と認める事項": null,
        "受入対象者": null,
        "備考": ""
      }
    },
    {
      "type": "Feature",
      "geometry": {
        "type": "Point",
        "coordinates": [
          136.978573,
          35.19825
        ]
      },
      "properties": {
        "NO": "104",
        "共通ID": "E2310000344111",
        "施設・場所名": "小幡あさひ幼稚園",
        "住所": "愛知県名古屋市守山区小幡南2-5-9",
        "指定緊急避難場所との住所同一": "1",
        "その他市町村長が必要と認める事項": null,
        "受入対象者": null,
        "備考": ""
      }
    },
    {
      "type": "Feature",
      "geometry": {
        "type": "Point",
        "coordinates": [
          136.985912,
          35.215993
        ]
      },
      "properties": {
        "NO": "105",
        "共通ID": "E2310000345111",
        "施設・場所名": "小幡北小学校",
        "住所": "愛知県名古屋市守山区小幡北1801",
        "指定緊急避難場所との住所同一": "1",
        "その他市町村長が必要と認める事項": null,
        "受入対象者": null,
        "備考": ""
      }
    },
    {
      "type": "Feature",
      "geometry": {
        "type": "Point",
        "coordinates": [
          136.979063,
          35.215481
        ]
      },
      "properties": {
        "NO": "106",
        "共通ID": "E2310000346111",
        "施設・場所名": "守山北中学校",
        "住所": "愛知県名古屋市守山区松坂町116-1",
        "指定緊急避難場所との住所同一": "1",
        "その他市町村長が必要と認める事項": null,
        "受入対象者": null,
        "備考": ""
      }
    },
    {
      "type": "Feature",
      "geometry": {
        "type": "Point",
        "coordinates": [
          137.04829,
          35.25165
        ]
      },
      "properties": {
        "NO": "107",
        "共通ID": "E2310000347111",
        "施設・場所名": "東谷山フルーツパーク",
        "住所": "愛知県名古屋市守山区上志段味字東谷2110",
        "指定緊急避難場所との住所同一": "1",
        "その他市町村長が必要と認める事項": null,
        "受入対象者": null,
        "備考": ""
      }
    },
    {
      "type": "Feature",
      "geometry": {
        "type": "Point",
        "coordinates": [
          136.974698,
          35.214143
        ]
      },
      "properties": {
        "NO": "108",
        "共通ID": "E2310000349111",
        "施設・場所名": "白沢コミュニティセンター",
        "住所": "愛知県名古屋市守山区城土町1",
        "指定緊急避難場所との住所同一": "1",
        "その他市町村長が必要と認める事項": null,
        "受入対象者": null,
        "備考": ""
      }
    },
    {
      "type": "Feature",
      "geometry": {
        "type": "Point",
        "coordinates": [
          136.953409,
          35.208147
        ]
      },
      "properties": {
        "NO": "109",
        "共通ID": "E2310000350111",
        "施設・場所名": "二城会館",
        "住所": "愛知県名古屋市守山区新守町127",
        "指定緊急避難場所との住所同一": "",
        "その他市町村長が必要と認める事項": "",
        "受入対象者": "",
        "備考": ""
      }
    },
    {
      "type": "Feature",
      "geometry": {
        "type": "Point",
        "coordinates": [
          136.953585,
          35.207079
        ]
      },
      "properties": {
        "NO": "110",
        "共通ID": "E2310000351111",
        "施設・場所名": "守山西中学校",
        "住所": "愛知県名古屋市守山区新守町58",
        "指定緊急避難場所との住所同一": "1",
        "その他市町村長が必要と認める事項": null,
        "受入対象者": null,
        "備考": ""
      }
    },
    {
      "type": "Feature",
      "geometry": {
        "type": "Point",
        "coordinates": [
          137.004434,
          35.194791
        ]
      },
      "properties": {
        "NO": "111",
        "共通ID": "E2310000352111",
        "施設・場所名": "森孝西小学校",
        "住所": "愛知県名古屋市守山区森孝1-1108",
        "指定緊急避難場所との住所同一": "1",
        "その他市町村長が必要と認める事項": null,
        "受入対象者": null,
        "備考": ""
      }
    },
    {
      "type": "Feature",
      "geometry": {
        "type": "Point",
        "coordinates": [
          137.008745,
          35.194006
        ]
      },
      "properties": {
        "NO": "112",
        "共通ID": "E2310000353111",
        "施設・場所名": "森孝西コミュニティセンター",
        "住所": "愛知県名古屋市守山区森孝3-201",
        "指定緊急避難場所との住所同一": "1",
        "その他市町村長が必要と認める事項": "",
        "受入対象者": "",
        "備考": ""
      }
    },
    {
      "type": "Feature",
      "geometry": {
        "type": "Point",
        "coordinates": [
          137.021285,
          35.191771
        ]
      },
      "properties": {
        "NO": "113",
        "共通ID": "E2310000354111",
        "施設・場所名": "森孝東小学校",
        "住所": "愛知県名古屋市守山区森孝東1-442",
        "指定緊急避難場所との住所同一": "1",
        "その他市町村長が必要と認める事項": null,
        "受入対象者": null,
        "備考": ""
      }
    },
    {
      "type": "Feature",
      "geometry": {
        "type": "Point",
        "coordinates": [
          137.009661,
          35.239357
        ]
      },
      "properties": {
        "NO": "114",
        "共通ID": "E2310000355111",
        "施設・場所名": "志段味西小学校",
        "住所": "愛知県名古屋市守山区深沢2-177",
        "指定緊急避難場所との住所同一": "1",
        "その他市町村長が必要と認める事項": null,
        "受入対象者": null,
        "備考": ""
      }
    },
    {
      "type": "Feature",
      "geometry": {
        "type": "Point",
        "coordinates": [
          136.985773,
          35.209104
        ]
      },
      "properties": {
        "NO": "115",
        "共通ID": "E2310000356111",
        "施設・場所名": "翠松園集会所",
        "住所": "愛知県名古屋市守山区翠松園1-704",
        "指定緊急避難場所との住所同一": "1",
        "その他市町村長が必要と認める事項": null,
        "受入対象者": null,
        "備考": ""
      }
    },
    {
      "type": "Feature",
      "geometry": {
        "type": "Point",
        "coordinates": [
          136.943236,
          35.211344
        ]
      },
      "properties": {
        "NO": "116",
        "共通ID": "E2310000358111",
        "施設・場所名": "瀬古小学校",
        "住所": "愛知県名古屋市守山区瀬古東3-1303",
        "指定緊急避難場所との住所同一": "1",
        "その他市町村長が必要と認める事項": null,
        "受入対象者": null,
        "備考": ""
      }
    },
    {
      "type": "Feature",
      "geometry": {
        "type": "Point",
        "coordinates": [
          136.966476,
          35.204438
        ]
      },
      "properties": {
        "NO": "117",
        "共通ID": "E2310000359111",
        "施設・場所名": "西城小学校",
        "住所": "愛知県名古屋市守山区西城2-14-3",
        "指定緊急避難場所との住所同一": "1",
        "その他市町村長が必要と認める事項": null,
        "受入対象者": null,
        "備考": ""
      }
    },
    {
      "type": "Feature",
      "geometry": {
        "type": "Point",
        "coordinates": [
          136.966766,
          35.200723
        ]
      },
      "properties": {
        "NO": "118",
        "共通ID": "E2310000360111",
        "施設・場所名": "守山会館",
        "住所": "愛知県名古屋市守山区西島町19-14",
        "指定緊急避難場所との住所同一": "1",
        "その他市町村長が必要と認める事項": null,
        "受入対象者": null,
        "備考": ""
      }
    },
    {
      "type": "Feature",
      "geometry": {
        "type": "Point",
        "coordinates": [
          136.964987,
          35.201575
        ]
      },
      "properties": {
        "NO": "119",
        "共通ID": "E2310000361111",
        "施設・場所名": "守山小学校",
        "住所": "愛知県名古屋市守山区西島町6-27",
        "指定緊急避難場所との住所同一": "1",
        "その他市町村長が必要と認める事項": null,
        "受入対象者": null,
        "備考": ""
      }
    },
    {
      "type": "Feature",
      "geometry": {
        "type": "Point",
        "coordinates": [
          137.01242,
          35.235199
        ]
      },
      "properties": {
        "NO": "120",
        "共通ID": "E2310000364111",
        "施設・場所名": "志段味西コミュニティセンター",
        "住所": "愛知県名古屋市守山区泉が丘1001",
        "指定緊急避難場所との住所同一": "1",
        "その他市町村長が必要と認める事項": null,
        "受入対象者": null,
        "備考": ""
      }
    },
    {
      "type": "Feature",
      "geometry": {
        "type": "Point",
        "coordinates": [
          136.966796,
          35.203437
        ]
      },
      "properties": {
        "NO": "121",
        "共通ID": "E2310000366111",
        "施設・場所名": "守山中学校",
        "住所": "愛知県名古屋市守山区大屋敷13-63",
        "指定緊急避難場所との住所同一": "1",
        "その他市町村長が必要と認める事項": null,
        "受入対象者": null,
        "備考": ""
      }
    },
    {
      "type": "Feature",
      "geometry": {
        "type": "Point",
        "coordinates": [
          137.041808,
          35.251195
        ]
      },
      "properties": {
        "NO": "122",
        "共通ID": "E2310000374111",
        "施設・場所名": "上志段味小学校",
        "住所": "愛知県名古屋市守山区大字上志段味字大塚1220-2",
        "指定緊急避難場所との住所同一": "1",
        "その他市町村長が必要と認める事項": null,
        "受入対象者": null,
        "備考": ""
      }
    },
    {
      "type": "Feature",
      "geometry": {
        "type": "Point",
        "coordinates": [
          137.032211,
          35.254151
        ]
      },
      "properties": {
        "NO": "123",
        "共通ID": "E2310000375111",
        "施設・場所名": "志段味東小学校",
        "住所": "愛知県名古屋市守山区大字上志段味字道光323-2",
        "指定緊急避難場所との住所同一": "1",
        "その他市町村長が必要と認める事項": null,
        "受入対象者": null,
        "備考": ""
      }
    },
    {
      "type": "Feature",
      "geometry": {
        "type": "Point",
        "coordinates": [
          137.026411,
          35.249663
        ]
      },
      "properties": {
        "NO": "124",
        "共通ID": "E2310000376111",
        "施設・場所名": "中志段味保育園",
        "住所": "愛知県名古屋市守山区大字中志段味字宮前1174",
        "指定緊急避難場所との住所同一": "1",
        "その他市町村長が必要と認める事項": "",
        "受入対象者": "",
        "備考": ""
      }
    },
    {
      "type": "Feature",
      "geometry": {
        "type": "Point",
        "coordinates": [
          136.995572,
          35.203064
        ]
      },
      "properties": {
        "NO": "125",
        "共通ID": "E2310000377111",
        "施設・場所名": "大森中学校",
        "住所": "愛知県名古屋市守山区大森1-2601",
        "指定緊急避難場所との住所同一": "1",
        "その他市町村長が必要と認める事項": null,
        "受入対象者": null,
        "備考": ""
      }
    },
    {
      "type": "Feature",
      "geometry": {
        "type": "Point",
        "coordinates": [
          136.997886,
          35.203574
        ]
      },
      "properties": {
        "NO": "126",
        "共通ID": "E2310000378111",
        "施設・場所名": "大森コミュニティセンター",
        "住所": "愛知県名古屋市守山区大森4-206-1",
        "指定緊急避難場所との住所同一": "1",
        "その他市町村長が必要と認める事項": null,
        "受入対象者": null,
        "備考": ""
      }
    },
    {
      "type": "Feature",
      "geometry": {
        "type": "Point",
        "coordinates": [
          136.997987,
          35.204711
        ]
      },
      "properties": {
        "NO": "127",
        "共通ID": "E2310000379111",
        "施設・場所名": "大森小学校",
        "住所": "愛知県名古屋市守山区大森4-401",
        "指定緊急避難場所との住所同一": "1",
        "その他市町村長が必要と認める事項": null,
        "受入対象者": null,
        "備考": ""
      }
    },
    {
      "type": "Feature",
      "geometry": {
        "type": "Point",
        "coordinates": [
          137.001266,
          35.207909
        ]
      },
      "properties": {
        "NO": "128",
        "共通ID": "E2310000380111",
        "施設・場所名": "大森北コミュニティセンター",
        "住所": "愛知県名古屋市守山区大森5-319-1",
        "指定緊急避難場所との住所同一": "1",
        "その他市町村長が必要と認める事項": null,
        "受入対象者": null,
        "備考": ""
      }
    },
    {
      "type": "Feature",
      "geometry": {
        "type": "Point",
        "coordinates": [
          136.96135,
          35.203854
        ]
      },
      "properties": {
        "NO": "129",
        "共通ID": "E2310000381111",
        "施設・場所名": "西城会館",
        "住所": "愛知県名古屋市守山区大牧町12-10",
        "指定緊急避難場所との住所同一": "",
        "その他市町村長が必要と認める事項": null,
        "受入対象者": null,
        "備考": ""
      }
    },
    {
      "type": "Feature",
      "geometry": {
        "type": "Point",
        "coordinates": [
          137.02617,
          35.249929
        ]
      },
      "properties": {
        "NO": "130",
        "共通ID": "E2310000383111",
        "施設・場所名": "志段味東コミュニティセンター",
        "住所": "愛知県名古屋市守山区中志段味字宮前1175-1",
        "指定緊急避難場所との住所同一": "1",
        "その他市町村長が必要と認める事項": null,
        "受入対象者": null,
        "備考": ""
      }
    },
    {
      "type": "Feature",
      "geometry": {
        "type": "Point",
        "coordinates": [
          136.952299,
          35.200895
        ]
      },
      "properties": {
        "NO": "131",
        "共通ID": "E2310000385111",
        "施設・場所名": "鳥羽見小学校",
        "住所": "愛知県名古屋市守山区鳥羽見2-17-6",
        "指定緊急避難場所との住所同一": "1",
        "その他市町村長が必要と認める事項": null,
        "受入対象者": null,
        "備考": ""
      }
    },
    {
      "type": "Feature",
      "geometry": {
        "type": "Point",
        "coordinates": [
          136.956679,
          35.209283
        ]
      },
      "properties": {
        "NO": "132",
        "共通ID": "E2310000386111",
        "施設・場所名": "二城小学校",
        "住所": "愛知県名古屋市守山区鳥神町248",
        "指定緊急避難場所との住所同一": "1",
        "その他市町村長が必要と認める事項": "",
        "受入対象者": "",
        "備考": ""
      }
    },
    {
      "type": "Feature",
      "geometry": {
        "type": "Point",
        "coordinates": [
          137.005245,
          35.199281
        ]
      },
      "properties": {
        "NO": "133",
        "共通ID": "E2310000388111",
        "施設・場所名": "天子田小学校",
        "住所": "愛知県名古屋市守山区天子田2-1501",
        "指定緊急避難場所との住所同一": "1",
        "その他市町村長が必要と認める事項": null,
        "受入対象者": null,
        "備考": ""
      }
    },
    {
      "type": "Feature",
      "geometry": {
        "type": "Point",
        "coordinates": [
          136.958042,
          35.19449
        ]
      },
      "properties": {
        "NO": "134",
        "共通ID": "E2310000389111",
        "施設・場所名": "廿軒家会館",
        "住所": "愛知県名古屋市守山区廿軒家14-56",
        "指定緊急避難場所との住所同一": "1",
        "その他市町村長が必要と認める事項": null,
        "受入対象者": null,
        "備考": ""
      }
    },
    {
      "type": "Feature",
      "geometry": {
        "type": "Point",
        "coordinates": [
          137.023646,
          35.192624
        ]
      },
      "properties": {
        "NO": "135",
        "共通ID": "E2310000390111",
        "施設・場所名": "森孝東コミュニティセンター",
        "住所": "愛知県名古屋市守山区白山4-501-3",
        "指定緊急避難場所との住所同一": "1",
        "その他市町村長が必要と認める事項": null,
        "受入対象者": null,
        "備考": ""
      }
    },
    {
      "type": "Feature",
      "geometry": {
        "type": "Point",
        "coordinates": [
          136.971467,
          35.213174
        ]
      },
      "properties": {
        "NO": "136",
        "共通ID": "E2310000391111",
        "施設・場所名": "白沢小学校",
        "住所": "愛知県名古屋市守山区白沢町233",
        "指定緊急避難場所との住所同一": "1",
        "その他市町村長が必要と認める事項": null,
        "受入対象者": null,
        "備考": ""
      }
    },
    {
      "type": "Feature",
      "geometry": {
        "type": "Point",
        "coordinates": [
          136.98135,
          35.195496
        ]
      },
      "properties": {
        "NO": "137",
        "共通ID": "E2310000393111",
        "施設・場所名": "苗代小学校",
        "住所": "愛知県名古屋市守山区苗代2-10-6",
        "指定緊急避難場所との住所同一": "1",
        "その他市町村長が必要と認める事項": null,
        "受入対象者": null,
        "備考": ""
      }
    },
    {
      "type": "Feature",
      "geometry": {
        "type": "Point",
        "coordinates": [
          137.02199,
          35.200217
        ]
      },
      "properties": {
        "NO": "138",
        "共通ID": "E2310000395111",
        "施設・場所名": "本地丘コミュニティセンター",
        "住所": "愛知県名古屋市守山区本地が丘801",
        "指定緊急避難場所との住所同一": "1",
        "その他市町村長が必要と認める事項": null,
        "受入対象者": null,
        "備考": ""
      }
    },
    {
      "type": "Feature",
      "geometry": {
        "type": "Point",
        "coordinates": [
          137.021705,
          35.197976
        ]
      },
      "properties": {
        "NO": "139",
        "共通ID": "E2310000396111",
        "施設・場所名": "本地丘小学校",
        "住所": "愛知県名古屋市守山区本地が丘908",
        "指定緊急避難場所との住所同一": "1",
        "その他市町村長が必要と認める事項": null,
        "受入対象者": null,
        "備考": ""
      }
    },
    {
      "type": "Feature",
      "geometry": {
        "type": "Point",
        "coordinates": [
          136.982808,
          35.218083
        ]
      },
      "properties": {
        "NO": "140",
        "共通ID": "E2310000397111",
        "施設・場所名": "守山スポーツセンター",
        "住所": "愛知県名古屋市守山区竜泉寺2-112",
        "指定緊急避難場所との住所同一": "1",
        "その他市町村長が必要と認める事項": null,
        "受入対象者": null,
        "備考": ""
      }
    },
    {
      "type": "Feature",
      "geometry": {
        "type": "Point",
        "coordinates": [
          136.984328,
          35.213108
        ]
      },
      "properties": {
        "NO": "141",
        "共通ID": "E2310000398111",
        "施設・場所名": "市営緑ヶ丘住宅第二集会所",
        "住所": "愛知県名古屋市守山区緑ヶ丘1010",
        "指定緊急避難場所との住所同一": "",
        "その他市町村長が必要と認める事項": null,
        "受入対象者": null,
        "備考": ""
      }
    },
    {
      "type": "Feature",
      "geometry": {
        "type": "Point",
        "coordinates": [
          136.98322,
          35.214222
        ]
      },
      "properties": {
        "NO": "142",
        "共通ID": "E2310000399111",
        "施設・場所名": "小幡北コミュニティセンター",
        "住所": "愛知県名古屋市守山区緑ヶ丘867",
        "指定緊急避難場所との住所同一": "1",
        "その他市町村長が必要と認める事項": null,
        "受入対象者": null,
        "備考": ""
      }
    },
    {
      "type": "Feature",
      "geometry": {
        "type": "Point",
        "coordinates": [
          136.958524,
          35.154916
        ]
      },
      "properties": {
        "NO": "143",
        "共通ID": "E2310000400111",
        "施設・場所名": "伊勝小学校",
        "住所": "愛知県名古屋市昭和区伊勝町2-100",
        "指定緊急避難場所との住所同一": "1",
        "その他市町村長が必要と認める事項": null,
        "受入対象者": null,
        "備考": ""
      }
    },
    {
      "type": "Feature",
      "geometry": {
        "type": "Point",
        "coordinates": [
          136.948701,
          35.150017
        ]
      },
      "properties": {
        "NO": "144",
        "共通ID": "E2310000401111",
        "施設・場所名": "名古屋市昭和文化小劇場",
        "住所": "愛知県名古屋市昭和区花見通1-41-2",
        "指定緊急避難場所との住所同一": "1",
        "その他市町村長が必要と認める事項": null,
        "受入対象者": null,
        "備考": ""
      }
    },
    {
      "type": "Feature",
      "geometry": {
        "type": "Point",
        "coordinates": [
          136.958494,
          35.148989
        ]
      },
      "properties": {
        "NO": "145",
        "共通ID": "E2310000402111",
        "施設・場所名": "川名中学校",
        "住所": "愛知県名古屋市昭和区楽園町93",
        "指定緊急避難場所との住所同一": "1",
        "その他市町村長が必要と認める事項": null,
        "受入対象者": null,
        "備考": ""
      }
    },
    {
      "type": "Feature",
      "geometry": {
        "type": "Point",
        "coordinates": [
          136.937647,
          35.138391
        ]
      },
      "properties": {
        "NO": "146",
        "共通ID": "E2310000403111",
        "施設・場所名": "松栄コミュニティセンター",
        "住所": "愛知県名古屋市昭和区菊園町1-12",
        "指定緊急避難場所との住所同一": "1",
        "その他市町村長が必要と認める事項": null,
        "受入対象者": null,
        "備考": ""
      }
    },
    {
      "type": "Feature",
      "geometry": {
        "type": "Point",
        "coordinates": [
          136.949816,
          35.14575
        ]
      },
      "properties": {
        "NO": "147",
        "共通ID": "E2310000404111",
        "施設・場所名": "駒方中学校",
        "住所": "愛知県名古屋市昭和区駒方町3-23",
        "指定緊急避難場所との住所同一": "1",
        "その他市町村長が必要と認める事項": null,
        "受入対象者": null,
        "備考": ""
      }
    },
    {
      "type": "Feature",
      "geometry": {
        "type": "Point",
        "coordinates": [
          136.949989,
          35.141177
        ]
      },
      "properties": {
        "NO": "148",
        "共通ID": "E2310000405111",
        "施設・場所名": "八事小学校",
        "住所": "愛知県名古屋市昭和区五軒家町25",
        "指定緊急避難場所との住所同一": "1",
        "その他市町村長が必要と認める事項": null,
        "受入対象者": null,
        "備考": ""
      }
    },
    {
      "type": "Feature",
      "geometry": {
        "type": "Point",
        "coordinates": [
          136.952722,
          35.151192
        ]
      },
      "properties": {
        "NO": "149",
        "共通ID": "E2310000406111",
        "施設・場所名": "川原コミュニティセンター",
        "住所": "愛知県名古屋市昭和区向山町1-52-2",
        "指定緊急避難場所との住所同一": "1",
        "その他市町村長が必要と認める事項": null,
        "受入対象者": null,
        "備考": ""
      }
    },
    {
      "type": "Feature",
      "geometry": {
        "type": "Point",
        "coordinates": [
          136.928686,
          35.143533
        ]
      },
      "properties": {
        "NO": "150",
        "共通ID": "E2310000407111",
        "施設・場所名": "向陽高等学校",
        "住所": "愛知県名古屋市昭和区広池町47",
        "指定緊急避難場所との住所同一": "1",
        "その他市町村長が必要と認める事項": null,
        "受入対象者": null,
        "備考": ""
      }
    },
    {
      "type": "Feature",
      "geometry": {
        "type": "Point",
        "coordinates": [
          136.956242,
          35.138732
        ]
      },
      "properties": {
        "NO": "151",
        "共通ID": "E2310000408111",
        "施設・場所名": "八事コミュニティセンター",
        "住所": "愛知県名古屋市昭和区広路町字南山79",
        "指定緊急避難場所との住所同一": "1",
        "その他市町村長が必要と認める事項": null,
        "受入対象者": null,
        "備考": ""
      }
    },
    {
      "type": "Feature",
      "geometry": {
        "type": "Point",
        "coordinates": [
          136.939984,
          35.148136
        ]
      },
      "properties": {
        "NO": "152",
        "共通ID": "E2310000409111",
        "施設・場所名": "名古屋国際中学校・高等学校",
        "住所": "愛知県名古屋市昭和区広路本町1-16",
        "指定緊急避難場所との住所同一": "1",
        "その他市町村長が必要と認める事項": null,
        "受入対象者": null,
        "備考": ""
      }
    },
    {
      "type": "Feature",
      "geometry": {
        "type": "Point",
        "coordinates": [
          136.931516,
          35.149066
        ]
      },
      "properties": {
        "NO": "153",
        "共通ID": "E2310000410111",
        "施設・場所名": "御器所コミュニティセンター",
        "住所": "愛知県名古屋市昭和区紅梅町2-15-2",
        "指定緊急避難場所との住所同一": "1",
        "その他市町村長が必要と認める事項": null,
        "受入対象者": null,
        "備考": ""
      }
    },
    {
      "type": "Feature",
      "geometry": {
        "type": "Point",
        "coordinates": [
          136.917864,
          35.1396
        ]
      },
      "properties": {
        "NO": "154",
        "共通ID": "E2310000411111",
        "施設・場所名": "ＡＴグループ本社　愛知トヨタ高辻（北館）",
        "住所": "愛知県名古屋市昭和区高辻町6-8",
        "指定緊急避難場所との住所同一": "",
        "その他市町村長が必要と認める事項": null,
        "受入対象者": null,
        "備考": ""
      }
    },
    {
      "type": "Feature",
      "geometry": {
        "type": "Point",
        "coordinates": [
          136.961144,
          35.150335
        ]
      },
      "properties": {
        "NO": "155",
        "共通ID": "E2310000412111",
        "施設・場所名": "南山大学",
        "住所": "愛知県名古屋市昭和区山里町18",
        "指定緊急避難場所との住所同一": "1",
        "その他市町村長が必要と認める事項": null,
        "受入対象者": null,
        "備考": ""
      }
    },
    {
      "type": "Feature",
      "geometry": {
        "type": "Point",
        "coordinates": [
          136.930406,
          35.157253
        ]
      },
      "properties": {
        "NO": "156",
        "共通ID": "E2310000414111",
        "施設・場所名": "昭和スポーツセンター",
        "住所": "愛知県名古屋市昭和区吹上2-6-15",
        "指定緊急避難場所との住所同一": "1",
        "その他市町村長が必要と認める事項": "",
        "受入対象者": "",
        "備考": ""
      }
    },
    {
      "type": "Feature",
      "geometry": {
        "type": "Point",
        "coordinates": [
          136.929497,
          35.15658
        ]
      },
      "properties": {
        "NO": "157",
        "共通ID": "E2310000415111",
        "施設・場所名": "吹上小学校",
        "住所": "愛知県名古屋市昭和区吹上町1-22",
        "指定緊急避難場所との住所同一": "1",
        "その他市町村長が必要と認める事項": null,
        "受入対象者": null,
        "備考": ""
      }
    },
    {
      "type": "Feature",
      "geometry": {
        "type": "Point",
        "coordinates": [
          136.935831,
          35.146236
        ]
      },
      "properties": {
        "NO": "158",
        "共通ID": "E2310000416111",
        "施設・場所名": "昭和生涯学習センター",
        "住所": "愛知県名古屋市昭和区石仏町1-48",
        "指定緊急避難場所との住所同一": "1",
        "その他市町村長が必要と認める事項": null,
        "受入対象者": null,
        "備考": ""
      }
    },
    {
      "type": "Feature",
      "geometry": {
        "type": "Point",
        "coordinates": [
          136.945903,
          35.155444
        ]
      },
      "properties": {
        "NO": "159",
        "共通ID": "E2310000417111",
        "施設・場所名": "児童福祉センター",
        "住所": "愛知県名古屋市昭和区折戸町4-16",
        "指定緊急避難場所との住所同一": "1",
        "その他市町村長が必要と認める事項": null,
        "受入対象者": null,
        "備考": ""
      }
    },
    {
      "type": "Feature",
      "geometry": {
        "type": "Point",
        "coordinates": [
          136.948296,
          35.151071
        ]
      },
      "properties": {
        "NO": "160",
        "共通ID": "E2310000419111",
        "施設・場所名": "広路小学校",
        "住所": "愛知県名古屋市昭和区川原通8-21-2",
        "指定緊急避難場所との住所同一": "1",
        "その他市町村長が必要と認める事項": null,
        "受入対象者": null,
        "備考": ""
      }
    },
    {
      "type": "Feature",
      "geometry": {
        "type": "Point",
        "coordinates": [
          136.960666,
          35.146976
        ]
      },
      "properties": {
        "NO": "161",
        "共通ID": "E2310000420111",
        "施設・場所名": "滝川コミュニティセンター",
        "住所": "愛知県名古屋市昭和区川名山町46-4",
        "指定緊急避難場所との住所同一": "1",
        "その他市町村長が必要と認める事項": null,
        "受入対象者": null,
        "備考": ""
      }
    },
    {
      "type": "Feature",
      "geometry": {
        "type": "Point",
        "coordinates": [
          136.940327,
          35.152573
        ]
      },
      "properties": {
        "NO": "162",
        "共通ID": "E2310000421111",
        "施設・場所名": "広路コミュニティセンター",
        "住所": "愛知県名古屋市昭和区川名本町2-10-1",
        "指定緊急避難場所との住所同一": "1",
        "その他市町村長が必要と認める事項": null,
        "受入対象者": null,
        "備考": ""
      }
    },
    {
      "type": "Feature",
      "geometry": {
        "type": "Point",
        "coordinates": [
          136.921435,
          35.145244
        ]
      },
      "properties": {
        "NO": "163",
        "共通ID": "E2310000422111",
        "施設・場所名": "村雲小学校",
        "住所": "愛知県名古屋市昭和区村雲町26-16",
        "指定緊急避難場所との住所同一": "1",
        "その他市町村長が必要と認める事項": null,
        "受入対象者": null,
        "備考": ""
      }
    },
    {
      "type": "Feature",
      "geometry": {
        "type": "Point",
        "coordinates": [
          136.922218,
          35.141306
        ]
      },
      "properties": {
        "NO": "164",
        "共通ID": "E2310000423111",
        "施設・場所名": "円上中学校",
        "住所": "愛知県名古屋市昭和区滝子町17-18",
        "指定緊急避難場所との住所同一": "1",
        "その他市町村長が必要と認める事項": null,
        "受入対象者": null,
        "備考": ""
      }
    },
    {
      "type": "Feature",
      "geometry": {
        "type": "Point",
        "coordinates": [
          136.960502,
          35.144212
        ]
      },
      "properties": {
        "NO": "165",
        "共通ID": "E2310000424111",
        "施設・場所名": "滝川小学校",
        "住所": "愛知県名古屋市昭和区滝川町131",
        "指定緊急避難場所との住所同一": "1",
        "その他市町村長が必要と認める事項": null,
        "受入対象者": null,
        "備考": ""
      }
    },
    {
      "type": "Feature",
      "geometry": {
        "type": "Point",
        "coordinates": [
          136.929925,
          35.143296
        ]
      },
      "properties": {
        "NO": "166",
        "共通ID": "E2310000425111",
        "施設・場所名": "桜山中学校",
        "住所": "愛知県名古屋市昭和区池端町1-15",
        "指定緊急避難場所との住所同一": "1",
        "その他市町村長が必要と認める事項": null,
        "受入対象者": null,
        "備考": ""
      }
    },
    {
      "type": "Feature",
      "geometry": {
        "type": "Point",
        "coordinates": [
          136.940364,
          35.145076
        ]
      },
      "properties": {
        "NO": "167",
        "共通ID": "E2310000426111",
        "施設・場所名": "松栄小学校",
        "住所": "愛知県名古屋市昭和区長戸町2-1",
        "指定緊急避難場所との住所同一": "1",
        "その他市町村長が必要と認める事項": null,
        "受入対象者": null,
        "備考": ""
      }
    },
    {
      "type": "Feature",
      "geometry": {
        "type": "Point",
        "coordinates": [
          136.928267,
          35.153036
        ]
      },
      "properties": {
        "NO": "168",
        "共通ID": "E2310000427111",
        "施設・場所名": "吹上コミュニティセンター",
        "住所": "愛知県名古屋市昭和区鶴羽町1-9-1",
        "指定緊急避難場所との住所同一": "1",
        "その他市町村長が必要と認める事項": null,
        "受入対象者": null,
        "備考": ""
      }
    },
    {
      "type": "Feature",
      "geometry": {
        "type": "Point",
        "coordinates": [
          136.919101,
          35.156665
        ]
      },
      "properties": {
        "NO": "169",
        "共通ID": "E2310000429111",
        "施設・場所名": "岡谷鋼機名古屋公会堂",
        "住所": "愛知県名古屋市昭和区鶴舞1-1-3",
        "指定緊急避難場所との住所同一": "1",
        "その他市町村長が必要と認める事項": "",
        "受入対象者": "",
        "備考": ""
      }
    },
    {
      "type": "Feature",
      "geometry": {
        "type": "Point",
        "coordinates": [
          136.922512,
          35.153787
        ]
      },
      "properties": {
        "NO": "170",
        "共通ID": "E2310000430111",
        "施設・場所名": "鶴舞小学校",
        "住所": "愛知県名古屋市昭和区鶴舞1-1-85",
        "指定緊急避難場所との住所同一": "1",
        "その他市町村長が必要と認める事項": null,
        "受入対象者": null,
        "備考": ""
      }
    },
    {
      "type": "Feature",
      "geometry": {
        "type": "Point",
        "coordinates": [
          136.918396,
          35.152657
        ]
      },
      "properties": {
        "NO": "171",
        "共通ID": "E2310001765111",
        "施設・場所名": "ＳＴＡＴＩＯＮ　Ａｉ",
        "住所": "愛知県名古屋市昭和区鶴舞1-2-32",
        "指定緊急避難場所との住所同一": "1",
        "その他市町村長が必要と認める事項": "",
        "受入対象者": "",
        "備考": ""
      }
    },
    {
      "type": "Feature",
      "geometry": {
        "type": "Point",
        "coordinates": [
          136.921047,
          35.152756
        ]
      },
      "properties": {
        "NO": "172",
        "共通ID": "E2310000431111",
        "施設・場所名": "北山中学校",
        "住所": "愛知県名古屋市昭和区鶴舞3-9-23",
        "指定緊急避難場所との住所同一": "1",
        "その他市町村長が必要と認める事項": null,
        "受入対象者": null,
        "備考": ""
      }
    },
    {
      "type": "Feature",
      "geometry": {
        "type": "Point",
        "coordinates": [
          136.923013,
          35.152698
        ]
      },
      "properties": {
        "NO": "173",
        "共通ID": "E2310000432111",
        "施設・場所名": "鶴舞コミュニティセンター",
        "住所": "愛知県名古屋市昭和区鶴舞4-2-25",
        "指定緊急避難場所との住所同一": "1",
        "その他市町村長が必要と認める事項": null,
        "受入対象者": null,
        "備考": ""
      }
    },
    {
      "type": "Feature",
      "geometry": {
        "type": "Point",
        "coordinates": [
          136.950189,
          35.157058
        ]
      },
      "properties": {
        "NO": "174",
        "共通ID": "E2310000433111",
        "施設・場所名": "川原小学校",
        "住所": "愛知県名古屋市昭和区萩原町2-1",
        "指定緊急避難場所との住所同一": "1",
        "その他市町村長が必要と認める事項": null,
        "受入対象者": null,
        "備考": ""
      }
    },
    {
      "type": "Feature",
      "geometry": {
        "type": "Point",
        "coordinates": [
          136.914484,
          35.147127
        ]
      },
      "properties": {
        "NO": "175",
        "共通ID": "E2310000434111",
        "施設・場所名": "白金コミュニティセンター",
        "住所": "愛知県名古屋市昭和区白金1-20-18",
        "指定緊急避難場所との住所同一": "1",
        "その他市町村長が必要と認める事項": "",
        "受入対象者": "",
        "備考": ""
      }
    },
    {
      "type": "Feature",
      "geometry": {
        "type": "Point",
        "coordinates": [
          136.915707,
          35.146817
        ]
      },
      "properties": {
        "NO": "176",
        "共通ID": "E2310000435111",
        "施設・場所名": "白金小学校",
        "住所": "愛知県名古屋市昭和区白金2-2-5",
        "指定緊急避難場所との住所同一": "1",
        "その他市町村長が必要と認める事項": null,
        "受入対象者": null,
        "備考": ""
      }
    },
    {
      "type": "Feature",
      "geometry": {
        "type": "Point",
        "coordinates": [
          136.964145,
          35.138409
        ]
      },
      "properties": {
        "NO": "177",
        "共通ID": "E2310000437111",
        "施設・場所名": "中京大学",
        "住所": "愛知県名古屋市昭和区八事本町101-2",
        "指定緊急避難場所との住所同一": "1",
        "その他市町村長が必要と認める事項": null,
        "受入対象者": null,
        "備考": ""
      }
    },
    {
      "type": "Feature",
      "geometry": {
        "type": "Point",
        "coordinates": [
          136.959173,
          35.157299
        ]
      },
      "properties": {
        "NO": "178",
        "共通ID": "E2310000439111",
        "施設・場所名": "伊勝コミュニティセンター",
        "住所": "愛知県名古屋市昭和区福原町1-38",
        "指定緊急避難場所との住所同一": "1",
        "その他市町村長が必要と認める事項": null,
        "受入対象者": null,
        "備考": ""
      }
    },
    {
      "type": "Feature",
      "geometry": {
        "type": "Point",
        "coordinates": [
          136.928442,
          35.147112
        ]
      },
      "properties": {
        "NO": "179",
        "共通ID": "E2310000440111",
        "施設・場所名": "御器所小学校",
        "住所": "愛知県名古屋市昭和区明月町1-32",
        "指定緊急避難場所との住所同一": "1",
        "その他市町村長が必要と認める事項": null,
        "受入対象者": null,
        "備考": ""
      }
    },
    {
      "type": "Feature",
      "geometry": {
        "type": "Point",
        "coordinates": [
          136.955381,
          35.114363
        ]
      },
      "properties": {
        "NO": "180",
        "共通ID": "E2310000441111",
        "施設・場所名": "中根小学校",
        "住所": "愛知県名古屋市瑞穂区井の元町50",
        "指定緊急避難場所との住所同一": "1",
        "その他市町村長が必要と認める事項": null,
        "受入対象者": null,
        "備考": ""
      }
    },
    {
      "type": "Feature",
      "geometry": {
        "type": "Point",
        "coordinates": [
          136.929223,
          35.119305
        ]
      },
      "properties": {
        "NO": "181",
        "共通ID": "E2310000442111",
        "施設・場所名": "井戸田コミュニティセンター",
        "住所": "愛知県名古屋市瑞穂区井戸田町3-25-1",
        "指定緊急避難場所との住所同一": "1",
        "その他市町村長が必要と認める事項": null,
        "受入対象者": null,
        "備考": ""
      }
    },
    {
      "type": "Feature",
      "geometry": {
        "type": "Point",
        "coordinates": [
          136.924623,
          35.115719
        ]
      },
      "properties": {
        "NO": "182",
        "共通ID": "E2310000443111",
        "施設・場所名": "穂波小学校",
        "住所": "愛知県名古屋市瑞穂区河岸1-1-38",
        "指定緊急避難場所との住所同一": "1",
        "その他市町村長が必要と認める事項": null,
        "受入対象者": null,
        "備考": ""
      }
    },
    {
      "type": "Feature",
      "geometry": {
        "type": "Point",
        "coordinates": [
          136.921563,
          35.135817
        ]
      },
      "properties": {
        "NO": "183",
        "共通ID": "E2310000444111",
        "施設・場所名": "日本ガイシみずほ会館",
        "住所": "愛知県名古屋市瑞穂区亀城町2-4",
        "指定緊急避難場所との住所同一": "1",
        "その他市町村長が必要と認める事項": null,
        "受入対象者": null,
        "備考": ""
      }
    },
    {
      "type": "Feature",
      "geometry": {
        "type": "Point",
        "coordinates": [
          136.925663,
          35.135204
        ]
      },
      "properties": {
        "NO": "184",
        "共通ID": "E2310000445111",
        "施設・場所名": "御劔小学校",
        "住所": "愛知県名古屋市瑞穂区亀城町5-4-1",
        "指定緊急避難場所との住所同一": "1",
        "その他市町村長が必要と認める事項": null,
        "受入対象者": null,
        "備考": ""
      }
    },
    {
      "type": "Feature",
      "geometry": {
        "type": "Point",
        "coordinates": [
          136.960746,
          35.122551
        ]
      },
      "properties": {
        "NO": "185",
        "共通ID": "E2310000447111",
        "施設・場所名": "県立昭和高等学校",
        "住所": "愛知県名古屋市瑞穂区玉水町1-18",
        "指定緊急避難場所との住所同一": "1",
        "その他市町村長が必要と認める事項": "",
        "受入対象者": "",
        "備考": ""
      }
    },
    {
      "type": "Feature",
      "geometry": {
        "type": "Point",
        "coordinates": [
          136.939393,
          35.134883
        ]
      },
      "properties": {
        "NO": "186",
        "共通ID": "E2310000448111",
        "施設・場所名": "汐路小学校",
        "住所": "愛知県名古屋市瑞穂区御莨町1-2",
        "指定緊急避難場所との住所同一": "1",
        "その他市町村長が必要と認める事項": "",
        "受入対象者": "",
        "備考": ""
      }
    },
    {
      "type": "Feature",
      "geometry": {
        "type": "Point",
        "coordinates": [
          136.940795,
          35.134065
        ]
      },
      "properties": {
        "NO": "187",
        "共通ID": "E2310000449111",
        "施設・場所名": "汐路中学校",
        "住所": "愛知県名古屋市瑞穂区御莨町4-16",
        "指定緊急避難場所との住所同一": "1",
        "その他市町村長が必要と認める事項": null,
        "受入対象者": null,
        "備考": ""
      }
    },
    {
      "type": "Feature",
      "geometry": {
        "type": "Point",
        "coordinates": [
          136.928337,
          35.133369
        ]
      },
      "properties": {
        "NO": "188",
        "共通ID": "E2310000451111",
        "施設・場所名": "瑞穂ケ丘中学校",
        "住所": "愛知県名古屋市瑞穂区高田町3-28",
        "指定緊急避難場所との住所同一": "1",
        "その他市町村長が必要と認める事項": null,
        "受入対象者": null,
        "備考": ""
      }
    },
    {
      "type": "Feature",
      "geometry": {
        "type": "Point",
        "coordinates": [
          136.936774,
          35.130967
        ]
      },
      "properties": {
        "NO": "189",
        "共通ID": "E2310000452111",
        "施設・場所名": "汐路コミュニティセンター",
        "住所": "愛知県名古屋市瑞穂区佐渡町4-9",
        "指定緊急避難場所との住所同一": "1",
        "その他市町村長が必要と認める事項": null,
        "受入対象者": null,
        "備考": ""
      }
    },
    {
      "type": "Feature",
      "geometry": {
        "type": "Point",
        "coordinates": [
          136.945727,
          35.119522
        ]
      },
      "properties": {
        "NO": "190",
        "共通ID": "E2310000453111",
        "施設・場所名": "萩山中学校",
        "住所": "愛知県名古屋市瑞穂区市丘町1-48",
        "指定緊急避難場所との住所同一": "1",
        "その他市町村長が必要と認める事項": null,
        "受入対象者": null,
        "備考": ""
      }
    },
    {
      "type": "Feature",
      "geometry": {
        "type": "Point",
        "coordinates": [
          136.946826,
          35.122234
        ]
      },
      "properties": {
        "NO": "191",
        "共通ID": "E2310000454111",
        "施設・場所名": "弥富コミュニティセンター",
        "住所": "愛知県名古屋市瑞穂区師長町82-2",
        "指定緊急避難場所との住所同一": "1",
        "その他市町村長が必要と認める事項": null,
        "受入対象者": null,
        "備考": ""
      }
    },
    {
      "type": "Feature",
      "geometry": {
        "type": "Point",
        "coordinates": [
          136.948818,
          35.13327
        ]
      },
      "properties": {
        "NO": "192",
        "共通ID": "E2310000455111",
        "施設・場所名": "陽明コミュニティセンター",
        "住所": "愛知県名古屋市瑞穂区松栄町2-46",
        "指定緊急避難場所との住所同一": "1",
        "その他市町村長が必要と認める事項": null,
        "受入対象者": null,
        "備考": ""
      }
    },
    {
      "type": "Feature",
      "geometry": {
        "type": "Point",
        "coordinates": [
          136.918583,
          35.122788
        ]
      },
      "properties": {
        "NO": "193",
        "共通ID": "E2310000457111",
        "施設・場所名": "堀田小学校",
        "住所": "愛知県名古屋市瑞穂区新開町24-13",
        "指定緊急避難場所との住所同一": "1",
        "その他市町村長が必要と認める事項": null,
        "受入対象者": null,
        "備考": ""
      }
    },
    {
      "type": "Feature",
      "geometry": {
        "type": "Point",
        "coordinates": [
          136.924587,
          35.113794
        ]
      },
      "properties": {
        "NO": "194",
        "共通ID": "E2310000460111",
        "施設・場所名": "穂波コミュニティセンター",
        "住所": "愛知県名古屋市瑞穂区神穂町5-18",
        "指定緊急避難場所との住所同一": "1",
        "その他市町村長が必要と認める事項": null,
        "受入対象者": null,
        "備考": ""
      }
    },
    {
      "type": "Feature",
      "geometry": {
        "type": "Point",
        "coordinates": [
          136.926411,
          35.139321
        ]
      },
      "properties": {
        "NO": "195",
        "共通ID": "E2310000462111",
        "施設・場所名": "名古屋市立大学滝子（山の畑）キャンパス　体育館",
        "住所": "愛知県名古屋市瑞穂区瑞穂町字山の畑1",
        "指定緊急避難場所との住所同一": "1",
        "その他市町村長が必要と認める事項": null,
        "受入対象者": null,
        "備考": ""
      }
    },
    {
      "type": "Feature",
      "geometry": {
        "type": "Point",
        "coordinates": [
          136.93999,
          35.124232
        ]
      },
      "properties": {
        "NO": "196",
        "共通ID": "E2310000463111",
        "施設・場所名": "豊岡小学校",
        "住所": "愛知県名古屋市瑞穂区膳棚町3-60",
        "指定緊急避難場所との住所同一": "1",
        "その他市町村長が必要と認める事項": null,
        "受入対象者": null,
        "備考": ""
      }
    },
    {
      "type": "Feature",
      "geometry": {
        "type": "Point",
        "coordinates": [
          136.925802,
          35.120046
        ]
      },
      "properties": {
        "NO": "197",
        "共通ID": "E2310000465111",
        "施設・場所名": "瑞穂生涯学習センター",
        "住所": "愛知県名古屋市瑞穂区惣作町2-27-3",
        "指定緊急避難場所との住所同一": "1",
        "その他市町村長が必要と認める事項": null,
        "受入対象者": null,
        "備考": ""
      }
    },
    {
      "type": "Feature",
      "geometry": {
        "type": "Point",
        "coordinates": [
          136.923495,
          35.124421
        ]
      },
      "properties": {
        "NO": "198",
        "共通ID": "E2310000466111",
        "施設・場所名": "瀬木学園体育館",
        "住所": "愛知県名古屋市瑞穂区大喜町1-37",
        "指定緊急避難場所との住所同一": "1",
        "その他市町村長が必要と認める事項": null,
        "受入対象者": null,
        "備考": ""
      }
    },
    {
      "type": "Feature",
      "geometry": {
        "type": "Point",
        "coordinates": [
          136.920235,
          35.129329
        ]
      },
      "properties": {
        "NO": "199",
        "共通ID": "E2310000467111",
        "施設・場所名": "高田コミュニティセンター",
        "住所": "愛知県名古屋市瑞穂区直来町1-7-1",
        "指定緊急避難場所との住所同一": "1",
        "その他市町村長が必要と認める事項": null,
        "受入対象者": null,
        "備考": ""
      }
    },
    {
      "type": "Feature",
      "geometry": {
        "type": "Point",
        "coordinates": [
          136.930592,
          35.12503
        ]
      },
      "properties": {
        "NO": "200",
        "共通ID": "E2310000468111",
        "施設・場所名": "津賀田中学校",
        "住所": "愛知県名古屋市瑞穂区津賀田町1-38",
        "指定緊急避難場所との住所同一": "1",
        "その他市町村長が必要と認める事項": null,
        "受入対象者": null,
        "備考": ""
      }
    },
    {
      "type": "Feature",
      "geometry": {
        "type": "Point",
        "coordinates": [
          136.931567,
          35.122072
        ]
      },
      "properties": {
        "NO": "201",
        "共通ID": "E2310000469111",
        "施設・場所名": "瑞穂コミュニティセンター",
        "住所": "愛知県名古屋市瑞穂区津賀田町3-83-1",
        "指定緊急避難場所との住所同一": "1",
        "その他市町村長が必要と認める事項": null,
        "受入対象者": null,
        "備考": ""
      }
    },
    {
      "type": "Feature",
      "geometry": {
        "type": "Point",
        "coordinates": [
          136.94381,
          35.131104
        ]
      },
      "properties": {
        "NO": "202",
        "共通ID": "E2310000472111",
        "施設・場所名": "名古屋市立大学田辺通キャンパス　カフェテリア",
        "住所": "愛知県名古屋市瑞穂区田辺通3-1",
        "指定緊急避難場所との住所同一": "1",
        "その他市町村長が必要と認める事項": null,
        "受入対象者": null,
        "備考": ""
      }
    },
    {
      "type": "Feature",
      "geometry": {
        "type": "Point",
        "coordinates": [
          136.945034,
          35.128191
        ]
      },
      "properties": {
        "NO": "203",
        "共通ID": "E2310000473111",
        "施設・場所名": "パロマ瑞穂アリーナ",
        "住所": "愛知県名古屋市瑞穂区田辺通3-4",
        "指定緊急避難場所との住所同一": "1",
        "その他市町村長が必要と認める事項": null,
        "受入対象者": null,
        "備考": ""
      }
    },
    {
      "type": "Feature",
      "geometry": {
        "type": "Point",
        "coordinates": [
          136.918715,
          35.115544
        ]
      },
      "properties": {
        "NO": "204",
        "共通ID": "E2310000475111",
        "施設・場所名": "田光中学校",
        "住所": "愛知県名古屋市瑞穂区内浜町5-16",
        "指定緊急避難場所との住所同一": "1",
        "その他市町村長が必要と認める事項": null,
        "受入対象者": null,
        "備考": ""
      }
    },
    {
      "type": "Feature",
      "geometry": {
        "type": "Point",
        "coordinates": [
          136.951327,
          35.120067
        ]
      },
      "properties": {
        "NO": "205",
        "共通ID": "E2310000476111",
        "施設・場所名": "弥富小学校",
        "住所": "愛知県名古屋市瑞穂区日向町4-23-1",
        "指定緊急避難場所との住所同一": "1",
        "その他市町村長が必要と認める事項": null,
        "受入対象者": null,
        "備考": ""
      }
    },
    {
      "type": "Feature",
      "geometry": {
        "type": "Point",
        "coordinates": [
          136.961059,
          35.117601
        ]
      },
      "properties": {
        "NO": "206",
        "共通ID": "E2310000478111",
        "施設・場所名": "中根コミュニティセンター",
        "住所": "愛知県名古屋市瑞穂区白砂町4-144-1",
        "指定緊急避難場所との住所同一": "",
        "その他市町村長が必要と認める事項": null,
        "受入対象者": null,
        "備考": ""
      }
    },
    {
      "type": "Feature",
      "geometry": {
        "type": "Point",
        "coordinates": [
          136.932622,
          35.118786
        ]
      },
      "properties": {
        "NO": "207",
        "共通ID": "E2310000479111",
        "施設・場所名": "井戸田小学校",
        "住所": "愛知県名古屋市瑞穂区姫宮町1-46",
        "指定緊急避難場所との住所同一": "1",
        "その他市町村長が必要と認める事項": "",
        "受入対象者": "",
        "備考": ""
      }
    },
    {
      "type": "Feature",
      "geometry": {
        "type": "Point",
        "coordinates": [
          136.924082,
          35.129643
        ]
      },
      "properties": {
        "NO": "208",
        "共通ID": "E2310000481111",
        "施設・場所名": "高田小学校",
        "住所": "愛知県名古屋市瑞穂区宝田町4-1",
        "指定緊急避難場所との住所同一": "1",
        "その他市町村長が必要と認める事項": null,
        "受入対象者": null,
        "備考": ""
      }
    },
    {
      "type": "Feature",
      "geometry": {
        "type": "Point",
        "coordinates": [
          136.941263,
          35.121586
        ]
      },
      "properties": {
        "NO": "209",
        "共通ID": "E2310000482111",
        "施設・場所名": "豊岡コミュニティセンター",
        "住所": "愛知県名古屋市瑞穂区豊岡通3-29-3",
        "指定緊急避難場所との住所同一": "1",
        "その他市町村長が必要と認める事項": null,
        "受入対象者": null,
        "備考": ""
      }
    },
    {
      "type": "Feature",
      "geometry": {
        "type": "Point",
        "coordinates": [
          136.93143,
          35.133089
        ]
      },
      "properties": {
        "NO": "210",
        "共通ID": "E2310000483111",
        "施設・場所名": "県立瑞陵高等学校　体育館",
        "住所": "愛知県名古屋市瑞穂区北原町2-1",
        "指定緊急避難場所との住所同一": "1",
        "その他市町村長が必要と認める事項": "",
        "受入対象者": "",
        "備考": ""
      }
    },
    {
      "type": "Feature",
      "geometry": {
        "type": "Point",
        "coordinates": [
          136.932689,
          35.126383
        ]
      },
      "properties": {
        "NO": "211",
        "共通ID": "E2310000484111",
        "施設・場所名": "瑞穂小学校",
        "住所": "愛知県名古屋市瑞穂区牧町2-46",
        "指定緊急避難場所との住所同一": "1",
        "その他市町村長が必要と認める事項": null,
        "受入対象者": null,
        "備考": ""
      }
    },
    {
      "type": "Feature",
      "geometry": {
        "type": "Point",
        "coordinates": [
          136.94764,
          35.131139
        ]
      },
      "properties": {
        "NO": "212",
        "共通ID": "E2310000485111",
        "施設・場所名": "陽明小学校",
        "住所": "愛知県名古屋市瑞穂区密柑山町1-1",
        "指定緊急避難場所との住所同一": "1",
        "その他市町村長が必要と認める事項": null,
        "受入対象者": null,
        "備考": ""
      }
    },
    {
      "type": "Feature",
      "geometry": {
        "type": "Point",
        "coordinates": [
          136.953423,
          35.129503
        ]
      },
      "properties": {
        "NO": "213",
        "共通ID": "E2310000488111",
        "施設・場所名": "名古屋市総合リハビリテーションセンター",
        "住所": "愛知県名古屋市瑞穂区弥富町字密柑山1-2",
        "指定緊急避難場所との住所同一": "1",
        "その他市町村長が必要と認める事項": null,
        "受入対象者": null,
        "備考": ""
      }
    },
    {
      "type": "Feature",
      "geometry": {
        "type": "Point",
        "coordinates": [
          136.875416,
          35.184392
        ]
      },
      "properties": {
        "NO": "214",
        "共通ID": "E2310000490111",
        "施設・場所名": "栄生小学校",
        "住所": "愛知県名古屋市西区栄生1-27-26",
        "指定緊急避難場所との住所同一": "1",
        "その他市町村長が必要と認める事項": null,
        "受入対象者": null,
        "備考": ""
      }
    },
    {
      "type": "Feature",
      "geometry": {
        "type": "Point",
        "coordinates": [
          136.878773,
          35.185799
        ]
      },
      "properties": {
        "NO": "215",
        "共通ID": "E2310000491111",
        "施設・場所名": "名古屋市西文化センター",
        "住所": "愛知県名古屋市西区栄生1-3-20",
        "指定緊急避難場所との住所同一": "1",
        "その他市町村長が必要と認める事項": null,
        "受入対象者": null,
        "備考": ""
      }
    },
    {
      "type": "Feature",
      "geometry": {
        "type": "Point",
        "coordinates": [
          136.873929,
          35.186476
        ]
      },
      "properties": {
        "NO": "216",
        "共通ID": "E2310000492111",
        "施設・場所名": "栄生コミュニティセンター",
        "住所": "愛知県名古屋市西区栄生2-13-4",
        "指定緊急避難場所との住所同一": "1",
        "その他市町村長が必要と認める事項": null,
        "受入対象者": null,
        "備考": ""
      }
    },
    {
      "type": "Feature",
      "geometry": {
        "type": "Point",
        "coordinates": [
          136.883652,
          35.186414
        ]
      },
      "properties": {
        "NO": "217",
        "共通ID": "E2310000493111",
        "施設・場所名": "榎小学校",
        "住所": "愛知県名古屋市西区押切1-12-25",
        "指定緊急避難場所との住所同一": "1",
        "その他市町村長が必要と認める事項": null,
        "受入対象者": null,
        "備考": ""
      }
    },
    {
      "type": "Feature",
      "geometry": {
        "type": "Point",
        "coordinates": [
          136.88336,
          35.180427
        ]
      },
      "properties": {
        "NO": "218",
        "共通ID": "E2310000494111",
        "施設・場所名": "旧江西小学校",
        "住所": "愛知県名古屋市西区菊井2-12-32",
        "指定緊急避難場所との住所同一": "1",
        "その他市町村長が必要と認める事項": null,
        "受入対象者": null,
        "備考": ""
      }
    },
    {
      "type": "Feature",
      "geometry": {
        "type": "Point",
        "coordinates": [
          136.883041,
          35.179653
        ]
      },
      "properties": {
        "NO": "219",
        "共通ID": "E2310000495111",
        "施設・場所名": "江西コミュニティセンター",
        "住所": "愛知県名古屋市西区菊井2-23-3",
        "指定緊急避難場所との住所同一": "1",
        "その他市町村長が必要と認める事項": null,
        "受入対象者": null,
        "備考": ""
      }
    },
    {
      "type": "Feature",
      "geometry": {
        "type": "Point",
        "coordinates": [
          136.88927,
          35.229667
        ]
      },
      "properties": {
        "NO": "220",
        "共通ID": "E2310000496111",
        "施設・場所名": "比良西小学校",
        "住所": "愛知県名古屋市西区玉池町347",
        "指定緊急避難場所との住所同一": "1",
        "その他市町村長が必要と認める事項": null,
        "受入対象者": null,
        "備考": ""
      }
    },
    {
      "type": "Feature",
      "geometry": {
        "type": "Point",
        "coordinates": [
          136.897896,
          35.203805
        ]
      },
      "properties": {
        "NO": "221",
        "共通ID": "E2310000499111",
        "施設・場所名": "稲生小学校",
        "住所": "愛知県名古屋市西区香呑町2-84",
        "指定緊急避難場所との住所同一": "1",
        "その他市町村長が必要と認める事項": null,
        "受入対象者": null,
        "備考": ""
      }
    },
    {
      "type": "Feature",
      "geometry": {
        "type": "Point",
        "coordinates": [
          136.868576,
          35.22049
        ]
      },
      "properties": {
        "NO": "222",
        "共通ID": "E2310000502111",
        "施設・場所名": "平田中学校",
        "住所": "愛知県名古屋市西区山木1-1",
        "指定緊急避難場所との住所同一": "1",
        "その他市町村長が必要と認める事項": null,
        "受入対象者": null,
        "備考": ""
      }
    },
    {
      "type": "Feature",
      "geometry": {
        "type": "Point",
        "coordinates": [
          136.871709,
          35.225983
        ]
      },
      "properties": {
        "NO": "223",
        "共通ID": "E2310000503111",
        "施設・場所名": "平田学校体育センター",
        "住所": "愛知県名古屋市西区山木2-167",
        "指定緊急避難場所との住所同一": "",
        "その他市町村長が必要と認める事項": null,
        "受入対象者": null,
        "備考": ""
      }
    },
    {
      "type": "Feature",
      "geometry": {
        "type": "Point",
        "coordinates": [
          136.887902,
          35.195844
        ]
      },
      "properties": {
        "NO": "224",
        "共通ID": "E2310000504111",
        "施設・場所名": "浄心中学校",
        "住所": "愛知県名古屋市西区児玉1-15-12",
        "指定緊急避難場所との住所同一": "1",
        "その他市町村長が必要と認める事項": null,
        "受入対象者": null,
        "備考": ""
      }
    },
    {
      "type": "Feature",
      "geometry": {
        "type": "Point",
        "coordinates": [
          136.885345,
          35.195936
        ]
      },
      "properties": {
        "NO": "225",
        "共通ID": "E2310000505111",
        "施設・場所名": "西陵高等学校",
        "住所": "愛知県名古屋市西区児玉2-20-65",
        "指定緊急避難場所との住所同一": "1",
        "その他市町村長が必要と認める事項": null,
        "受入対象者": null,
        "備考": ""
      }
    },